,shop_id,address,城市,company_registered_address,abbreviation,name,总计,通过数,拒绝数,接受数,接受金额,longitude,latitude
0,19211010,上海上海纽菲思,上海,,纽菲思,上海纽菲思,383,190,193,181,4572488.00元,31.289957,121.420708
1,19211014,上海上海市黄埔区瑞金南路341号,上海,上海市黄浦区瑞金南路341号东北2室部分,鲁南,上海宏津企业管理有限公司鲁南门诊部,7372,3921,3451,3797,120983729.00元,31.19744,121.46956
2,19211015,上海上海市静安区长安路1138号1－3层、404（D）、405（E）、406（F）、407室,上海,上海市静安区长安路1138号1－3层、404（D）、405（E）、406（F）、407室,玫瑰,上海玫瑰医疗美容医院,199,63,136,62,1471748.00元,31.24714,121.45186
3,19211016,上海上海市虹口区吴淞路308号1202室,上海,上海市虹口区吴淞路308号1202室,雅丰,上海雅丰医疗美容门诊部,40,31,9,30,896038.00元,31.24994,121.48973
4,19211017,上海上海美立方医疗美容医院,上海,,美立方,上海美立方医疗美容医院,1514,690,824,655,20790869.00元,31.21324,121.43174
5,19211018,上海上海伊尔美港华医疗美容医院有限公司,上海,,港华,上海伊尔美港华医疗美容医院有限公司,369,113,256,112,7678818.00元,31.2136,121.429001
6,19211019,上海上海长宁区华山路1358号,上海,杨浦区国顺东路222号,瑞欧,上海瑞欧医疗美容门诊部有限公司,3137,1772,1365,1745,56956630.00元,31.20839,121.43272
7,19211020,上海上海丽质医疗美容门诊部有限公司,上海,,丽质,上海丽质医疗美容门诊部有限公司,118,26,92,26,713070.00元,31.26837,121.539543
8,19211021,上海上海市长宁区天山路919号3楼302号商铺,上海,上海市长宁区天山路919号3楼302号商铺,美姿,上海美姿医疗美容门诊部有限公司,476,230,246,220,7019048.00元,31.21084,121.40476
9,19211022,上海上海古北悦丽医疗美容诊所有限公司,上海,,古北,上海古北悦丽医疗美容诊所有限公司,1852,840,1012,831,24194340.00元,31.20717,121.399048
10,19211023,北京北京市朝阳区东直门外大街12号,北京,北京市朝阳区东直门外大街12号,薇琳,北京薇琳医疗美容医院有限公司2,56,2,54,2,71720.00元,39.94104,116.45392
11,19211024,上海上海市徐汇区新乐路167号甲,上海,上海市徐汇区新乐路167号甲,悦薇堂,上海悦薇堂医疗美容门诊部有限公司,507,277,230,270,7941160.00元,31.21686,121.45316
12,19211025,上海上海伊莱美医疗美容医院有限公司,上海,,伊莱美,上海伊莱美医疗美容医院有限公司,1400,759,641,736,20102570.00元,31.24189,121.459427
13,19211026,上海上海宏仁医疗美容诊所有限公司,上海,,宏仁,上海宏仁医疗美容诊所有限公司,19,0,19,0,0.00元,31.20006,121.414742
14,19211027,上海上海自由贸易区源深路155号,上海,上海自由贸易区源深路155号,华美,上海华美医疗美容医院有限公司,701,263,438,262,5492062.00元,31.23934,121.53073
15,19211029,上海上海市徐汇区漕溪北路88号201、202、203、204、205室,上海,上海市徐汇区漕溪北路88号201、202、203、204、205室,伯思立,上海伯思立医疗美容门诊部有限公司,125,35,90,34,797835.00元,31.19198,121.437073
16,19211030,苏州市苏州市南环东路10号2幢102室,苏州市,苏州市南环东路10号2幢102室,苏州薇琳,苏州薇琳美容医院有限公司,432,237,195,234,4075243.00元,31.28045,120.63843
17,19211031,上海上海新医联门诊部有限公司,上海,,新医联,上海新医联门诊部有限公司,19,8,11,8,99560.00元,31.24555,121.481781
18,19211032,上海上海市徐汇区番禺路752号2-3层,上海,上海市徐汇区番禺路752号2-3层,俏佳人,上海俏佳人医疗美容门诊部股份有限公司,214,93,121,90,2481100.00元,31.19846,121.42878
19,19211033,上海上海绿叶爱丽美娇美医疗美容门诊部有限公司,上海,,爱丽美,上海绿叶爱丽美娇美医疗美容门诊部有限公司,45,10,35,9,281000.00元,31.26837,121.539543
20,19211034,杭州市杭州市下城区环城北路97、101、105、107号1-3层,杭州市,杭州市下城区环城北路97、101、105、107号1-3层,维多利亚,杭州维多利亚医疗美容医院有限公司,479,352,127,350,5873839.00元,30.274498,120.180608
21,19211035,杭州市杭州市江干区解放东路29号迪凯银座16楼,杭州市,杭州市江干区解放东路29号迪凯银座16楼,億美,杭州億美医疗美容诊所有限公司,205,71,134,69,1598700.00元,30.24172,120.21154
22,19211036,上海上海第九人民医院 眼科,上海,,九院眼科,上海第九人民医院 眼科,2,2,0,2,12620.70元,31.202761,121.485489
23,19211037,上海黄浦区陆家浜路719号,上海,黄浦区陆家浜路719号,明桥,上海明桥医疗美容门诊部有限公司,756,385,371,379,10857317.00元,31.213,121.49443
24,19211038,上海伊犁南路111号3楼-4楼,上海,上海市闵行区伊犁南路111号3楼-4楼,韩镜,上海韩镜医疗美容医院有限公司,2128,1035,1093,1021,27950551.00元,31.1912,121.4038
25,19211039,上海上海市巨鹿路889号4号楼,上海,上海市巨鹿路889号4号楼,上海容妍,上海容妍医院管理有限公司,2177,1272,905,1257,37140860.00元,31.21837,121.44834
26,19211040,上海上海市长宁区镇宁路9号九尊大厦4楼,上海,上海市长宁区镇宁路9号1幢4楼ABC室,上海百禾,上海百禾医疗美容门诊部有限公司,233,114,119,103,3148800.00元,31.21493,121.43867
27,19211041,上海上海市杨浦区佳木斯路359号一层,上海,上海市杨浦区佳木斯路359号一层,上海名媛,上海名媛医疗美容门诊部有限公司,418,199,219,190,4626700.00元,31.29356,121.53494
28,19211042,上海上海市杨浦区三门路168号底层,上海,上海市杨浦区三门路168号底层,法思荟,上海法思荟医疗美容门诊部有限公司,105,22,83,22,664400.00元,31.31134,121.51088
29,19211043,上海上海市普陀区金沙江路1989号,上海,上海市普陀区金沙江路1989号101、201-204室,上海翔茂,上海翔茂医疗美容门诊部有限公司,254,127,127,120,3343100.00元,31.23492,121.37254
30,19211044,上海上海市静安区江宁路396号2层,上海,上海市静安区江宁路396号2层,上海星采,上海星采医疗美容门诊部有限公司,467,277,190,260,7023460.00元,31.23416,121.45304
31,19211045,上海上海市静安区华山路328号4层,上海,上海市静安区华山路328号4层,上海瑰康,上海瑰康医疗美容门诊部有限公司,857,320,537,308,7457080.00元,31.21825,121.44611
32,19211046,上海上海市普陀区大渡河路1933号,上海,上海市普陀区大渡河路1933号,上海宏康,上海宏康医院有限公司,153,73,80,72,1475320.00元,31.25612,121.39795
33,19211047,上海上海市静安区万航渡路799号2楼,上海,上海市静安区万航渡路799号2楼,上海颜梦,上海颜梦医疗美容门诊部,37,4,33,4,120000.00元,31.227936,121.43064
34,19211048,上海上海市静安区北京西路968号602-605室,上海,上海市静安区北京西路968号602-605室,瑞柏恩,上海瑞柏恩医疗美容门诊部有限公司,439,219,220,208,5112460.00元,31.23121,121.45597
35,19211049,上海上海市浦东新区东明路2100号S107、S108室,上海,,上海德媛,上海德媛医疗美容门诊部有限公司,4,0,4,0,0.00元,31.15602,121.51701
36,19211050,上海徐汇区吴中路2号,上海,,上海万众,上海万众医院有限公司,531,200,331,196,5114200.00元,31.18927,121.42084
37,19211052,上海上海市虹口区同丰路667弄87号3区-1号,上海,上海市虹口区同丰路667弄87号3区-1号,上海力信,上海力信医疗美容诊所有限公司,5,3,2,3,74960.00元,31.273333,121.467893
38,19211053,上海上海市嘉定区沪西医院有限公司,上海,,上海沪西,上海市嘉定区沪西医院有限公司,3122,1919,1203,1881,52002610.00元,31.2512,121.369072
39,19211055,上海上海市长宁区凯旋路399号3幢1-2层,上海,上海市长宁区凯旋路399号3幢1-2层,上海圣汇,上海圣汇医疗美容门诊部有限公司,1625,846,779,835,22052120.00元,31.21532,121.41604
40,19211056,上海上海市徐汇区宜山路333号1幢105室,上海,上海市徐汇区宜山路333号1幢105室,上海颜范,上海颜范医疗美容门诊部有限公司,211,134,77,133,3583900.00元,31.18794,121.42958
41,19211057,上海上海市浦东新区浦东南路1088号4楼,上海,中国（上海）自由贸易试验区浦东南路1078号4F20、21室,上海洁铭,上海洁铭医疗美容门诊部有限公司,33,15,18,15,290394.00元,31.22821,121.51559
42,19211058,上海长宁区中山西路339号,上海,长宁区中山西路339号,上海天大,上海天大医疗美容医院有限公司,262,124,138,120,2510747.00元,31.21607,121.41153
43,19211059,上海上海市徐汇区漕宝路38号1幢二十八楼,上海,上海市徐汇区漕宝路38号1幢二十八楼,上海医颜,上海医颜医疗美容门诊部有限公司,79,50,29,48,1212866.00元,31.16795,121.43031
44,19211060,上海上海市静安区江宁路188号16楼,上海,上海市静安区江宁路188号16楼,上海迪蔻,上海迪蔻医疗美容门诊部有限公司,350,134,216,132,3162800.00元,31.23111,121.45494
45,19211061,上海虹口区四平路776号,上海,虹口区四平路776号,上海美联,上海美联臣医疗美容医院有限公司,327,136,191,133,3454172.00元,31.27233,121.49897
46,19211062,上海徐汇区华石路75.77号,上海,上海市徐汇区华石路75、77号,赛美瑞,上海赛美瑞医疗美容门诊部有限公司,1423,767,656,756,19783382.00元,31.17771,121.43132
47,19211063,上海上海市奉贤区南桥镇环城东路1148号,上海,,上海奉浦,上海奉浦医院有限公司,172,95,77,87,1850506.00元,30.91931,121.46733
48,19211064,上海上海市浦东新区金高路2388号1幢109-111室、301-306室,上海,上海市浦东新区金高路2388号1幢109-111室、301-306室,诺诗雅,上海诺诗雅医疗美容医院有限公司,199,102,97,101,2514460.00元,31.26013,121.60592
49,19211065,上海上海市徐汇区漕宝路111号二楼,上海,上海市徐汇区漕宝路111号二楼,上海澳雅,上海澳雅医疗美容门诊部有限公司,1564,927,637,912,24055130.00元,31.16778,121.42419
50,19211070,上海新泾路118号,上海,新泾路118号,上海南山,上海南山医院有限公司,738,383,355,374,9871700.00元,31.24555,121.481781
51,19211071,上海上海市松江区西林北路353号,上海,上海市松江区西林北路355号,茸城医院,上海茸城医院有限公司,14,6,8,6,108518.00元,31.011087,121.221614
52,19211072,杭州市杭州市莫干山路759号,杭州市,杭州市拱墅区,杭州天大,杭州天大皮肤病医院有限公司,34,9,25,9,102970.00元,30.29837,120.13672
53,19211073,杭州市杭州市江干区钱江国际时代广场3棟104，201-1-4室,杭州市,杭州,杭州璟颜,杭州圣忻医疗美容门诊部有限公司,158,87,71,86,2244120.00元,30.24037,120.20517
54,19211074,上海延安西路1773号,上海,延安西路1773号,美之源,上海美之源整形外科医院有限公司,1,0,1,0,0.00元,31.205993,121.411475
55,19211075,上海嘉定区曹安公路1352号,上海,嘉定区曹安公路1352号,上海肤康,上海肤康医院有限公司,29,12,17,12,243200.00元,31.25034,121.3775
56,19211076,上海淮海西路282号,上海,淮海西路282号,上海港华,上海港华医院,870,403,467,396,10030042.00元,31.19996,121.42901
57,19211077,杭州市杭州市江干区庆春东路80-3号，紫晶商务城2幢202室、302室,杭州市,杭州,杭州世彩,杭州世彩医疗美容诊所有限公司,116,73,43,72,1636360.00元,30.25782,120.19212
58,19211078,杭州市杭州市下城区环城北路208杭州大厦C座506,杭州市,杭州市下城区环城北路208号CZ506,杭州微蔻,杭州微蔻医疗美容诊所有限公司,16,7,9,7,123600.00元,30.27366,120.16169
59,19211079,杭州市杭州市上城区庆春路225号西湖时代广场3楼,杭州市,杭州市上城区庆春路225号西湖时代广场3楼,杭芭黎雅,杭州芭黎雅医疗美容门诊部有限公司,117,41,76,41,862980.00元,30.25802,120.16156
60,19211080,杭州市杭州市上城区长生路60号、湖滨路46号292室,杭州市,杭州,杭州瓒美,杭州苹佳瓒美医疗美容门诊部有限公司,166,52,114,49,990080.00元,30.25791,120.15988
61,19211081,上海上海浦东新区民生路1399号4楼,上海,上海浦东新区民生路1399号4楼,上海光博,上海光博士医疗美容门诊部有限公司,411,231,180,227,5094272.00元,31.22396,121.55068
62,19211082,上海上海市黄浦区顺昌路622号2号楼,上海,上海市黄浦区顺昌路622号2号楼,万安医疗,上海万安医疗美容门诊部,341,163,178,160,4465248.00元,31.21087,121.47973
63,19211083,杭州市杭州市下城区新华路双眼井巷20号,杭州市,,杭州珀丽,杭州珀丽医疗美容诊所有限公司,81,33,48,33,732800.00元,30.26278,120.17623
64,19211084,上海上海市杨浦区秦皇岛路32号,上海,杨浦区,首尔丽格,上海首尔丽格医疗美容医院有限公司,40,13,27,12,302500.00元,31.25045,121.51655
65,19211085,上海上海市普陀区中山北路3553号伸大厦4楼404,上海,上海市普陀区中山北路3553号伸大厦4楼404,上海微蓝,上海微蓝医疗美容门诊部有限公司,276,159,117,155,3835272.00元,31.22928,121.40966
66,19211086,上海上海市徐汇区老沪闵路668号302室,上海,上海市徐汇区老沪闵路668号302室,李月辉,上海李月辉医疗美容外科诊所有限公司,77,43,34,43,871716.00元,31.14524,121.42907
67,19211087,上海长宁区武夷路447号,上海,长宁区武夷路447号,上海美仑,上海美仑医疗美容门诊部有限公司,1421,862,559,848,23894808.00元,31.21293,121.42091
68,19211088,重庆重庆市江北区建北一支路8号裙楼3228号,重庆,重庆市江北区建北一支路8号裙楼3228号,渝光博士,重庆光博士医疗美容门诊部（有限合伙）,9,4,5,4,39276.00元,29.57459,106.53383
69,19211089,上海上海市昆明路518号北美广场A座104-107,上海,上海,上海星媛,上海星媛医疗美容门诊部有限公司,46,28,18,28,468400.00元,31.26028,121.51278
70,19211090,成都市成都市武侯区长益东二路35号,成都市,四川成都市武侯区长益东二路35、37、39号（丽府）1栋201号,成都武侯,成都武侯华颜医疗美容门诊部有限公司,2,2,0,1,20000.00元,30.62203,104.03191
71,19211091,上海上海静安区江宁路818号,上海,上海静安区江宁路818号,上海薇琳,上海薇琳医疗美容医院有限公司,467,277,190,267,6003000.00元,31.23945,121.44819
72,19211100,上海上海市静安区大宁路701号9楼,上海,上海市静安区大宁路701号9楼,沪灵之水,上海灵之水医疗美容门诊部有限公司,63,26,37,24,533020.00元,31.271799,121.445436
73,19211104,杭州市杭州市西湖区灵溪北路5号,杭州市,杭州市西湖区灵溪北路5号,杭州西美,杭州西美健康管理有限公司灵溪北路医疗美容诊所,6,1,5,1,6650.00元,30.26339,120.09835
74,19211107,上海上海光博士医疗美容门诊部有限公司2,上海,,光博士2,上海光博士医疗美容门诊部有限公司2,124,70,54,70,1658700.00元,31.224091,121.550697
75,19211108,苏州市苏州市南环东路919号,苏州市,苏州市南环东路919号,苏州立方,苏州美立方医疗美容有限公司,407,269,138,264,5118158.00元,31.27982,120.6296
76,19211109,上海上海普陀区长寿路818弄56号、58号1-2层,上海,上海普陀区长寿路818弄56号、58号1-2层,逆时针,上海逆时针医疗美容门诊部有限公司,36,21,15,21,415933.00元,31.23583,121.43045
77,19211110,重庆重庆市渝中区较场口87号B区二楼,重庆,重庆市渝中区较场口87号B区二楼,德艺阿蓝,重庆德艺阿蓝医疗美容门诊部有限公司,56,14,42,14,342550.00元,29.55356,106.5755
78,19211111,上海中国（上海）自由贸易试验区商城路800号（斯米克大厦）,上海,中国（上海）自由贸易试验区商城路800号（斯米克大厦）,上海美美,上海美美医疗美容门诊部有限公司,15,11,4,11,285000.00元,31.23017,121.51977
79,19211113,宁波市宁波市海曙区和义路91-7号,宁波市,宁波市海曙区和义路91-7号,宁波海曙,宁波海曙爱美丽友好医疗投资咨询有限公司,2,1,1,1,20000.00元,29.87409,121.55359
80,19211114,重庆重庆市北部新区留云路1号附21号,重庆,重庆市北部新区留云路1号附21号,玛利亚,重庆玛利亚美萌医疗美容门诊部有限公司,23,17,6,17,275038.00元,29.6503,106.56492
81,19211115,重庆重庆市渝中区时代天街16号1栋10-9,重庆,重庆市渝中区时代天街16号1栋10-9,张瑜医美,渝中区张瑜医疗美容诊所,7,2,5,2,20000.00元,29.539299,106.511002
82,19211116,重庆重庆市渝北区龙溪街道金山路17号附3号国宾城商业风情街1-商2,重庆,重庆市渝北区龙溪街道金山路17号附3号国宾城商业风情街1-商2,奥丽整形,重庆奥丽医疗管理有限责任公司,4,2,2,2,47000.00元,29.597398,106.525186
83,19211117,重庆沙坪坝区沙滨路8号附59-62号,重庆,沙坪坝区沙滨路8号附59-62号,玺悦台,重庆沙坪坝玺悦台医疗美容门诊有限公司,58,24,34,24,585969.00元,29.55313,106.48394
84,19211118,重庆重庆市江北区建新北路38号3栋36-7至36-10,重庆,重庆市江北区建新北路38号3栋36-7至36-10,江北精美,江北精美医疗美容诊所,60,37,23,37,701915.00元,29.58351,106.52846
85,19211120,杭州市杭州滨江区长河街道江汉路1785号网新双城1幢2403室,杭州市,杭州滨江区长河街道江汉路1785号网新双城1幢2403室,杭冠美医,杭州冠美医疗美容诊所有限公司,179,94,85,91,2282089.00元,30.20712,120.20133
86,19211121,重庆重庆市渝中区瑞天路128号第4层402.第5层502号,重庆,重庆市渝中区瑞天路128号第4层402.第5层502号,勤天医疗,重庆勤天医疗美容诊所有限公司,25,12,13,12,260400.00元,29.55309,106.50959
87,19211122,重庆渝中区民权路88号日月光中心广场2楼2017,重庆,渝中区民权路88号日月光中心广场2楼2017,星天地,渝中区星天地医疗美容诊所,4,1,3,1,10000.00元,29.55443,106.5728
88,19211123,上海上海,上海,上海,沪盈美,上海盈美医疗美容门诊部有限公司,29,13,16,12,220728.00元,31.40527,121.48941
89,19211125,苏州市苏州工业园区瑞芙臣医疗美容诊所有限公司,苏州市,,瑞芙臣,苏州工业园区瑞芙臣医疗美容诊所有限公司,35,22,13,22,272318.00元,31.261761,120.596092
90,19211126,重庆重庆市经开区南城大道249号3楼,重庆,重庆市经开区南城大道249号3楼,远大整形,重庆远大中西医结合医院有限公司,16,4,12,3,54000.00元,29.52297,106.55722
91,19211127,重庆重庆市渝中区时代天街1号2栋6-2至6-8,重庆,重庆市渝中区时代天街1号2栋6-2,术妍,渝中区术妍医疗美容诊所,38,20,18,20,382600.00元,29.540352,106.513996
92,19211128,"重庆重庆市九龙坡区谢家湾正街55号26幢-14,15号",重庆,九龙坡区谢家湾翁明飞医疗美容诊所,翁明飞,九龙坡区谢家湾翁明飞医疗美容诊所,12,1,11,1,13600.00元,29.51736,106.52256
93,19211130,苏州市苏州工业园区通园路339号1幢102.103室,苏州市,苏州工业园区通园路339号1幢102.103室,苏州玛汀,苏州工业园区玛汀医疗美容诊所有限公司,14,11,3,11,250800.00元,31.28675,120.66535
94,19211131,苏州市苏州千叶莲医疗美容门诊部,苏州市,,千叶莲,苏州千叶莲医疗美容门诊部,2,1,1,1,20000.00元,30.90251,120.670021
95,19211132,重庆重庆市渝中区时代天街2号2幢11-9至11#,重庆,重庆市渝中区时代天街2号2幢11-9至11#,徐少群,渝中区徐少群医疗美容诊所,2,1,1,1,15000.00元,29.538179,106.512711
96,19211133,重庆重庆市南岸区南坪街道珊瑚路6号2栋负1层店面40,重庆,重庆市南岸区南坪街道珊瑚路6号2栋负1层店面40,志权医疗,南岸曾志权医疗美容诊所,56,31,25,30,469300.00元,29.52666,106.56738
97,19211134,杭州市杭州市江干区钱江国际时代广场2幢1803室,杭州市,杭州市江干区钱江国际时代广场2幢1803室,杭伊琳健,杭州伊琳健康咨询有限公司城星路医疗美容诊所,11,4,7,3,55200.00元,30.24037,120.20517
98,19211136,无锡市无锡市滨湖区梁溪路996号,无锡市,无锡市滨湖区梁溪路996号,苏曼陀罗,无锡曼陀罗美容医院有限公司,128,55,73,53,1029073.00元,31.55599,120.2332
99,19211140,"重庆南岸区珊瑚路1号1,6单元2层办公1号",重庆,"南岸区珊瑚路1号1,6单元2层办公1号",艾美鼻,南岸区袁金学医疗美容诊所,1,0,1,0,0.00元,29.52656,106.56754
100,19211141,重庆重庆市渝北区龙塔街道红黄路121号附14号,重庆,重庆市渝北区龙塔街道红黄路121号附14号,珂琳雅,渝北珂琳雅丁勤医疗美容诊所,57,18,39,18,361010.00元,29.590737,106.535368
101,19211142,苏州市苏州圣爱医院有限公司,苏州市,苏州高新区金山路36号,圣爱1,苏州圣爱医院有限公司2,284,194,90,188,3546952.00元,31.29921,120.567299
102,19211143,苏州市苏州高新区金山路36号,苏州市,苏州高新区金山路36号,圣爱医院,苏州圣爱医院有限公司3,10,8,2,8,130000.00元,31.29697,120.55884
103,19211144,苏州市苏州市吴中区木渎镇丹枫路289-4号,苏州市,苏州市吴中区木渎镇丹枫路289-4号,立志医疗,苏州吴中木渎傅立志医疗美容诊所(普通合伙),344,218,126,215,3402000.00元,31.254561,120.545678
104,19211145,苏州市苏州工业园区东环路658号3幢101 102 103 104,苏州市,苏州工业园区东环路658号3幢101 102 103 104,华美美容,苏州芘丽芙华美美容医院有限公司,415,170,245,168,2900043.00元,31.29781,120.65439
105,19211146,苏州市苏州高新区狮山路199号1幢23层,苏州市,苏州高新区狮山路199号1幢23层,曼陀罗,苏州曼陀罗医疗美容门诊部有限公司,80,47,33,44,632120.00元,31.29277,120.5588
106,19211147,重庆重庆市渝中区北区路51号附3号2-1,重庆,重庆市渝中区北区路51号附3号2-1,星范丽格,重庆星范丽格医疗美容有限公司,5,0,5,0,0.00元,29.560803,106.554422
107,19211149,重庆重庆市江北区北城天街11号附1号3-1,重庆,重庆市江北区北城天街11号附1号3-1,美仑美奂,重庆美仑美奂整形美容医院有限公司,1038,777,261,773,10704848.00元,29.57987,106.53496
108,19211150,杭州市杭州市江干区秋涛北路33号佰富时代中心2幢4层413、415、417、419室,杭州市,杭州市江干区秋涛北路33号佰富时代中心2幢4层413、415、417、419室,杭清吟健,杭州清吟健康管理有限公司秋涛北路医疗美容诊所,46,31,15,31,701231.00元,30.291834,120.19879
109,19211151,成都市成都市武侯区科华北路65号世外桃源广场,成都市,成都市武侯区科华北路69号B座20层,俏佳人,成都武侯一美医疗美容门诊有限公司,4,2,2,2,40000.00元,30.63065,104.07657
110,19211152,上海上海市黄浦区龙华东路868号3-402,上海,上海市黄浦区龙华东路868号3-402,沪颜之梦,上海颜之梦医疗美容门诊部有限公司,174,103,71,100,2651490.00元,31.192803,121.472402
111,19211153,南京市南京市秦淮区中山东路198号2201室,南京市,南京市秦淮区中山东路198号2201室,宁克拉美,南京克拉美医疗科技有限公司,36,15,21,13,225000.00元,32.04078,118.79362
112,19211154,重庆重庆市渝中区时代天街1号1栋20-8#,重庆,重庆市渝中区时代天街1号1栋20-8#,美宁美凝,重庆美宁美凝医疗美容有限公司,10,4,6,4,72170.00元,29.540352,106.513996
113,19211155,南京市南京市玄武区珠江路655号,南京市,珠江路655号,南京华美,南京华美美容医院有限公司,171,109,62,107,1950708.00元,32.04617,118.80573
114,19211156,南京市虎踞南路100号,南京市,虎踞南路100号建宇大厦,维多利亚,南京维多利亚美容医院有限公司,300,161,139,161,2323720.00元,32.03096,118.76931
115,19211157,杭州市杭州市拱墅区教工路596号,杭州市,杭州市拱墅区教工路596号,杭时光医,杭州时光医疗美容医院有限公司,553,391,162,390,7363060.00元,30.2977,120.13454
116,19211158,成都市成都市金牛区肖家村二巷89号附11号1层,成都市,成都市金牛区肖家村二巷89号附11号1层,僮颜整形,成都金牛僮颜医疗美容诊所有限公司,84,48,36,47,932527.00元,30.68832,104.07618
117,19211159,杭州市西湖区西溪新座7幢1号门二层商铺4号,杭州市,西湖区西溪新座7幢1号门二层商铺4号,婵之媛,杭州婵之媛医疗美容诊所有限公司,1,1,0,1,17000.00元,30.267574,120.11095
118,19211160,武汉市洪山区珞喻路95号融科珞瑜中心T1栋3层商1室,武汉市,洪山区珞喻路95号融科珞喻路95号T1栋3层商1室,鄂德美医,武汉洪山区德美医疗美容门诊部有限公司,390,196,194,195,3383181.00元,30.52121,114.36821
119,19211161,杭州市杭州市滨江区江虹路1750号信雅达国际创意中心3楼,杭州市,杭州市滨江区江虹路1750号信雅达国际创意中心3楼,芯美昕,杭州芯美昕医疗美容门诊部有限公司,74,31,43,31,760600.00元,30.20865,120.1981
120,19211162,重庆重庆市江北区洋河一路68号1栋13楼,重庆,重庆市江北区洋河一路68号1栋13-2,皇仕口腔,重庆皇仕口腔门诊部有限公司,135,117,18,114,1313053.00元,29.558937,106.5273
121,19211163,杭州市西湖区古墩路83号,杭州市,西湖区古墩路83号,丽尚,杭州丽尚医疗美容门诊部有限公司,11,2,9,2,38800.00元,30.27013,120.10096
122,19211164,重庆重庆市渝中区八一路108号第3-5层,重庆,重庆市渝中区八一路108号第3-5层,渝铜雀台,重庆新铜雀台整形美容医院有限公司,930,692,238,683,9380498.00元,29.55792,106.57835
123,19211165,成都市成都市新都区新都街道马超东路380号新都国际广场2-608号,成都市,成都市新都区新都街道马超东路380号新都国际广场2-608号,卓美色,成都卓美色医疗美容诊所有限公司,55,41,14,41,517790.00元,30.80929,104.18415
124,19211166,苏州市苏州市姑苏区福运路198号常润大厦501室,苏州市,苏州市姑苏区福运路198号常润大厦501室,泰美丽,苏州姑苏区泰美丽医疗美容诊所有限公司,72,38,34,36,609714.00元,31.27107,120.59123
125,19211167,苏州市张家港市杨舍镇步行街96-110室,苏州市,,康丽医院,张家港康丽专科医院有限公司1,2,0,2,0,0.00元,31.86264,120.515556
126,19211168,苏州市苏州市宝带西路1155号3幢3层,苏州市,苏州市宝带西路1155号3幢3层,常春藤,苏州常春藤医疗美容有限公司,91,42,49,42,845869.00元,31.26475,120.60036
127,19211169,南京市秦淮区洪武路396号,南京市,秦淮区洪武路396号,南京韩辰,南京韩辰医院,873,452,421,429,9502181.00元,32.02938,118.78613
128,19211170,南京市南京市江宁区东山街道金箔路468号江宁女人街E区,南京市,南京市江宁区东山街道金箔路468号江宁女人街E区,宁亚韩,南京江宁亚韩美容医院有限公司,59,30,29,30,583420.00元,31.9473,118.85239
129,19211171,重庆重庆市渝中区临江支路28号负1.1.2.3层,重庆,重庆市渝中区临江支路28号负1.1.2.3层,联合丽格,重庆联合丽格美容医院有限公司,36,20,16,19,253810.00元,29.56088,106.57863
130,19211172,武汉市武汉市江汉区建设大道434号,武汉市,武汉市江汉区建设大道436号志顺.中央华府1栋1层1-3室、2层1-2室、3层,鄂艺龄医,武汉艺龄医疗美容医院有限公司,659,437,222,435,8970138.00元,30.59112,114.25896
131,19211173,南京市南京市秦淮区洪武路288号,南京市,南京市秦淮区洪武路288号,宁康美,南京康美美容医院有限公司,696,511,185,505,9359813.00元,32.03252,118.78662
132,19211174,重庆重庆市渝中区中山一路181号观音岩大厦2楼,重庆,重庆市渝中区中山一路181号观音岩大厦2楼,重庆军美,重庆军美医疗整形美容门诊部（有限合伙）,320,198,122,194,2470065.00元,29.555458,106.559873
133,19211175,杭州市杭州市建国北路289-2号,杭州市,杭州市建国北路289-2号,丽星整形,杭州丽星医疗美容诊所有限公司,225,75,150,74,1767669.00元,30.26515,120.18049
134,19211176,杭州市杭州市西湖区灵犀北路21号1幢底商7号二层、8号一、二层,杭州市,杭州市西湖区灵犀北路21号1幢底商7号二层、8号一、二层,杭州静娇,杭州静娇健康管理有限公司灵溪北路医疗美容诊所,20,15,5,15,249430.00元,30.261641,120.099663
135,19211177,成都市成都市成华区羊子山路68号4栋2单元20层19号,成都市,成都市成华区羊子山路68号4栋2单元20层19号,艾菲尔,成都艾斐尔健康管理有限公司,54,26,28,26,687800.00元,30.701881,104.095287
136,19211178,重庆重庆市渝中区大同路16号平街第三层,重庆,重庆市渝中区大同路16号平街第三层,曾曾医疗,渝中区曾曾医疗美容诊所,5,4,1,4,45800.00元,29.55754,106.57321
137,19211179,杭州市杭州市上城区婺江路319号,杭州市,杭州市上城区婺江路319号一楼102室、二楼201室、三楼,杭州甄美,杭州甄美医疗美容医院有限公司,173,101,72,99,1580911.00元,30.23237,120.19508
138,19211180,成都市成都锦江区庆云南街69号红星国际2号楼 412,成都市,成都锦江区庆云南街69号红星国际2号楼412-415号,川今妃医,成都今妃医学美容诊所（普通合伙）,1,0,1,0,0.00元,30.66116,104.0863
139,19211181,深圳市深圳市龙华新区民治街道民旺路10号,深圳市,深圳市龙华新区民治街道民旺路10号,深圳华美,深圳市龙华区美客华美门诊部,26,13,13,13,116540.00元,22.62241,114.03899
140,19211182,武汉市洪山区珞喻路街道口百脑汇31楼,武汉市,洪山区珞喻路10号群光二期写字楼31层01-08.23-24号,鄂伊莱美,武汉伊莱美医疗美容门诊部有限公司,1469,1092,377,1084,23004828.00元,30.525311,114.35688
141,19211183,杭州市浙江省杭州市江干区新风路685/687/689号,杭州市,浙江省杭州市江干区新风路685/687/689号,浙美好分,杭州昕微医疗美容诊所有限公司,13,1,12,1,10000.00元,30.29283,120.20636
142,19211185,杭州市杭州市江干区旺座中心1幢1801室,杭州市,杭州市江干区旺座中心1幢1801室,杭州佰丽,杭州佰丽医疗美容诊所有限公司,263,127,136,124,2421810.00元,30.261089,120.207428
143,19211186,武汉市武汉市武昌区中南路2-6号工行广场B座F层A室,武汉市,武汉市武昌区中南路2-6号工行广场B座F层A室,鄂美来医,武汉市武昌区美来医疗美容门诊部,289,175,114,175,2788538.00元,30.53535,114.33215
144,19211187,成都市成都市十二桥37号新一号,成都市,成都市十二桥37号新一号,川驻颜医,金牛区驻颜医学美容门诊部,139,86,53,86,1107013.00元,30.65984,104.10194
145,19211188,杭州市浙江省杭州市西湖区西溪路535号,杭州市,杭州市西湖区西溪路535号,杭馨尚美,杭州馨尚健康管理有限公司西溪路医疗美容诊所,11,1,10,1,19000.00元,30.2712,120.11684
146,19211189,成都市成都市武侯区黉门街4号,成都市,成都市武侯区黉门街4号,川美立方,成都美立方医疗美容医院有限公司,144,73,71,70,1009918.00元,30.64495,104.06347
147,19211190,成都市武侯区置信路2号附19号,成都市,武侯区置信路2号附19号,川臻尚美,成都武侯臻尚美瑞医疗美容诊所有限公司,232,124,108,118,2498951.00元,30.64791,104.02142
148,19211191,成都市成都市武侯区大石西路239号,成都市,成都市武侯区大石西路239号,川成都医,成都医美整形门诊部有限公司,20,12,8,11,185900.00元,30.65129,104.02394
149,19211193,成都市成都市青羊区大安西路47号整栋,成都市,成都市青羊区大安东路47号,川正好,成都正好医学美容门诊部有限公司,117,52,65,47,879574.00元,30.67714,104.07256
150,19211194,长沙市长沙市岳麓区咸嘉湖西路67号佳兴国际广场公寓111号,长沙市,长沙市岳麓区咸嘉湖西路67号佳兴国际广场公寓111号,湘德尔美,湖南德尔美客医疗美容有限公司,231,108,123,108,2460776.00元,28.21227,112.93154
151,19211195,武汉市武昌区武珞路442号中南国际城AB座2层1室,武汉市,武昌区武珞路442号中南国际城AB座2层1室,鄂美丽尔,武汉美丽尔医疗美容门诊部(普通合伙),99,21,78,21,380900.00元,30.53444,114.32984
152,19211196,成都市成都武侯区科华北路65号四川大学科研综合楼A座2303,成都市,成都市武侯区科华北路65号四川大学科研综合楼A座2303,川美雅娜,成都武侯美雅娜医疗美容门诊部有限公司,16,10,6,10,228000.00元,30.63065,104.07657
153,19211197,深圳市深圳市罗湖区笋岗街道笋岗东路3012号中民时代广场二层西201室A区，202室,深圳市,广东省深圳市,深韩美尔, 深圳韩美尔医疗美容门诊部有限公司,24,5,19,5,112500.00元,22.55675,114.10535
154,19211198,"成都市成都青羊区金河路59号尊城国际1单元13楼14,15号",成都市,成都市青羊区百花潭路8号5层502室,蒂亚丽莎,成都市蒂亚丽莎健康管理有限公司,5,2,3,2,22550.00元,30.66027,104.05474
155,19211199,成都市成都市青羊区鼓楼南街117号6层603-606,成都市,成都市青羊区鼓楼南街117号3号，C号，D号,川维莎芬,成都维莎芬医疗美容有限公司,251,201,50,200,4216960.00元,30.6632,104.07211
156,19211200,武汉市武汉武昌区积玉桥街临江大道98号万达广场（二期）1栋1-3层002室,武汉市,武汉武昌区积玉桥街临江大道98号万达广场（二期）1栋1-3层002室,鄂奥黛丽,武汉奥黛丽医院管理有限公司,128,55,73,54,946380.00元,30.56499,114.30906
157,19211201,成都市成都市青羊区通顺桥街2号2层202-3,成都市,成都市青羊区通顺桥街2号2层202-3,联和智悦,成都青羊区联和智悦医疗美容诊所有限公司,7,4,3,4,19182.00元,30.67169,104.07435
158,19211202,成都市成都市金牛区蜀汉路89号,成都市,成都市金牛区蜀汉路89号,川蜀尚蓉,金牛区蜀尚蓉雅美容整形门诊部,92,44,48,43,644507.00元,30.68367,104.02846
159,19211204,杭州市杭州市拱墅区莫干山路735号,杭州市,杭州市拱墅区莫干山路735号,zmyy,杭州占美医疗美容诊所有限公司,10,8,2,8,109900.00元,30.29738,120.13801
160,19211205,佛山市佛山市禅城区汾江中路43号104铺,佛山市,佛山市禅城区汾江中路43号104铺,粤梦露医,佛山市禅城区梦露医学诊所,32,8,24,8,158820.00元,23.0384,113.10893
161,19211206,深圳市深圳市罗湖区黄贝街道北斗路文华花园B型裙楼三楼301-305室,深圳市,深圳市罗湖区黄贝街道北斗路文华花园B型裙楼三楼301-305室,深圳艾妍,深圳艾妍医疗美容门诊部有限公司,41,11,30,11,195000.00元,22.54467,114.136124
162,19211207,深圳市深圳市罗湖区南湖街道深南东路3001号金城大厦地下商场二座地下2号及二楼,深圳市,广东省深圳市,深圳协同,深圳协同医疗美容门诊部,449,203,246,202,3439499.00元,22.54345,114.12205
163,19211208,深圳市深圳市罗湖区南湖街道人民南路3023号中旅大厦一楼,深圳市,广东省深圳市,深圳悦己,深圳悦己医疗美容门诊部有限公司,18,3,15,3,43000.00元,22.54271,114.11853
164,19211209,重庆重庆市渝北区洋河东路1号揽胜国际广场三楼,重庆,重庆市渝北区洋河东路1号揽胜国际广场三楼,重庆时光,重庆时光整形美容医院有限公司,133,62,71,60,1147076.00元,29.584538,106.547118
165,19211210,重庆重庆市北部新区金开大道1590号两江盛景第一层3-11号,重庆,重庆市北部新区金开大道1590号两江盛景第一层3-11号,渝奥黛丽,重庆医美奥黛丽实业有限公司美容专科医院,142,86,56,84,1992060.00元,29.67583,106.56531
166,19211211,南京市南京市玄武区中山路132号凯润金城05幢5层,南京市,南京市玄武区中山路132号凯润5幢5层,宁曼陀罗,南京玄武曼陀罗医疗美容诊所有限公司,54,39,15,38,564800.00元,32.0478,118.78443
167,19211212,武汉市武汉市江岸区永清街解放大道1340号2-4号商铺,武汉市,武汉市江岸区永清街解放大道1340号2-4号商铺,鄂美基元,武汉市江岸区美基元医疗美容门诊部,11,1,10,1,10348.00元,30.60946,114.30707
168,19211213,武汉市湖北省武汉市硚口区航空路13号,武汉市,湖北省武汉市硚口区航空路13号,鄂同济医,华中科技大学同济医学院医院,20,4,16,4,73460.00元,30.58126,114.26284
169,19211214,"成都市成都市武侯区盛丰路30号2栋2层附201,202号",成都市,"成成都市武侯区盛丰路30号2栋2层附201,202号",川欢颜,成都焕颜医疗美容门诊部有限责任公司,9,3,6,3,57200.00元,30.63665,104.0195
170,19211215,深圳市深圳市罗湖区南湖街道深圳火车站大楼C区2楼东面，4楼东面及5楼,深圳市,广东省深圳市,深盛美佳,深圳市八福贸易有限公司盛美佳门诊部,325,154,171,154,3251501.00元,22.53219,114.117813
171,19211216,长沙市长沙市开福区湘江中路一段160号复地崑玉府S栋109、114号,长沙市,长沙市开福区湘江中路一段160号复地崑玉府S栋109、114号,湘美槿医,长沙市开福区美槿医疗门诊部,25,11,14,10,181000.00元,28.210205,112.977097
172,19211217,成都市成都市锦江区春熙路西段19号1栋6号,成都市,成都市锦江区春熙路西段19号1栋6号,川悦己,成都锦江悦己医疗美容门诊部有限公司,8,1,7,1,6800.00元,30.65506,104.07615
173,19211218,深圳市深圳市福田区华富街道彩田路3030号橄榄鹏苑一期一、二层东侧,深圳市,深圳市福田区华富街道彩田路3030号橄榄鹏苑一期一、二楼东侧,深圳晨曦,深圳晨曦医疗美容门诊部有限公司,67,31,36,31,610685.00元,22.54317,114.06931
174,19211219,深圳市深圳市罗湖区嘉宾路20号爵士大厦11B03、05/06/17/18/09/20,深圳市,广东省深圳市,深圳妍熙,深圳妍熙医疗美容门诊部有限公司,68,21,47,21,434480.00元,22.53967,114.11491
175,19211220,深圳市深圳市罗湖区南湖街道东门南路3007号3-4层,深圳市,深圳市罗湖区南湖街道东门南路3007号3-4层,深圳金丽,深圳金丽医疗美容门诊部有限公司,31,8,23,7,88600.00元,22.54237,114.12234
176,19211221,深圳市深圳市罗湖区东门街道东门中路九龙城广场6层2A,深圳市,广东省深圳市,深圳协恩,深圳协恩医疗美容门诊部有限公司,23,6,17,6,61588.00元,22.54578,114.121521
177,19211222,成都市成都市青羊区二环路西一段89号12栋2楼1号,成都市,成都市青羊区二环路西一段89号12栋2楼1号,川花田医,成都花田医学美容门诊部有限公司,27,15,12,15,177646.00元,30.65528,104.02143
178,19211223,上海上海市汉口路691号,上海,上海市黄浦区汉口路691号,沪鹏爱,上海鹏爱医疗美容门诊部有限公司,100,50,50,50,1073550.00元,31.23332,121.47746
179,19211224,南京市南京市秦淮区中山东路18号3007、3008、3009、3010,南京市,南京市秦淮区中山东路18号3007、3008、3009、3010,南京美梯,南京美梯医疗美容有限公司,53,30,23,27,655700.00元,32.04133,118.78589
180,19211225,"成都市成都市青羊区二环路西二段19号1栋3单元808,809,810号",成都市,"成都市青羊区二环路西二段19号1栋3单元808,809,810号",川美人汇,成都美人汇医疗美容有限公司,53,10,43,10,322500.00元,30.66397,104.02095
181,19211226,长沙市岳麓区枫林路东侧001号,长沙市,岳麓区枫林路东侧001号,湘卓而美,长沙市卓而美医疗美容有限公司,20,10,10,10,173140.00元,28.201929,112.942383
182,19211227,深圳市深圳市宝安区西乡街道宝安大道3180、3186、3188、3220号,深圳市,深圳市宝安区西乡街道宝安大道3220号,深圳同仁,深圳美加美医疗美容门诊部,69,23,46,23,385182.00元,22.57509,113.87223
183,19211228,长沙市芙蓉区八一路10号天佑大厦201号,长沙市,芙蓉区八一路10号天佑大厦201号,湘美德思,长沙美德思医疗美容有限公司,21,4,17,3,49200.00元,28.197518,113.010172
184,19211230,深圳市深圳市南山区南山街道创业路东方雅居01-02层商场A2F,深圳市,广东省深圳市,深圳多美,深圳市多美美诺医疗美容门诊部有限公司,7,0,7,0,0.00元,22.514891,113.932877
185,19211231,宁波市鄞州区百丈东路22、24、26号,宁波市,鄞州区百丈东路22、24、26号,宁胡继来,宁波鄞州胡继来医疗美容诊所,86,57,29,56,947840.00元,29.86369,121.56969
186,19211232,成都市成都市龙腾西路3号丽景华庭2期5-1-209号商铺,成都市,成都市龙腾西路3号丽景华庭2期5-1-209号,川艾米丽,武侯区艾米丽医疗美容门诊部,4,0,4,0,0.00元,30.65168,104.00917
187,19211233,南京市南京市白下区中山东路18号2室2层08,南京市,南京市白下区中山东路18号2室2层08,南京侨台,南京侨台美容有限责任公司秦淮第三诊所,9,6,3,6,64500.00元,32.04133,118.78589
188,19211234,深圳市深圳市罗湖区南湖街道和平路1197号,深圳市,深圳市罗湖区南湖街道和平路1197号,深圳幸福,深圳幸福医疗美容门诊部有限公司,110,35,75,35,549380.00元,22.53853,114.1153
189,19211235,"深圳市深圳市罗湖区东门街道东门人民二横街2号UCT商场4006,4007",深圳市,深圳市罗湖区东门街道东门人民二横街2号UCT商场4006,深圳美丝,深圳市美丝医疗美容门诊部有限公司,237,77,160,77,1343312.00元,22.54644,114.12066
190,19211236,武汉市武汉市东湖生态旅游风景区八一路延长线特1号,武汉市,武汉市东湖生态旅游风景区八一路延长线特1号,鄂楷恩医,武汉楷恩医疗美容医院有限公司,67,17,50,17,206900.00元,30.4287,114.31744
191,19211237,宁波市鄞州区中河街道四明城市广场34号,宁波市,宁波市鄞州区中河街道四明城市广场34号,宁波艾米,宁波市鄞州艾米医疗美容门诊部公司,269,173,96,173,3333393.00元,29.82679,121.55658
192,19211239,深圳市深圳市罗湖区南湖街道深南东路2071号安装大厦1座2楼,深圳市,深圳市罗湖区南湖街道深南东路2071号安装大厦1座2楼,深圳广尔,深圳广尔美丽医疗美容门诊部有限公司,759,417,342,416,8009743.00元,22.54402,114.12508
193,19211240,杭州市杭州市下城区中山北路290号,杭州市,杭州市下城区中山北路290号,杭州瑞丽,杭州瑞丽医疗美容医院有限公司,228,107,121,103,1856605.00元,30.26485,120.1689
194,19211241,宁波市宁波海曙区辛殿璐858号,宁波市,宁波市新典路858号,宁波初美,宁波海曙初美医疗美容诊所有限公司,151,50,101,50,1020260.00元,29.85957,121.55084
195,19211242,武汉市武汉市江汉区香港北路326号C1-12,武汉市,武汉市江汉区香港北路326号C1-12,鄂臻美,武汉江汉臻魅医疗美容门诊部,7,4,3,4,53050.00元,30.61169,114.27394
196,19211243,宁波市宁波海曙区新典路554号,宁波市,宁波海曙区新典路554号,宁波丽星,宁波海曙丽星医疗美容门诊部有限公司,228,71,157,71,1383420.00元,29.857556,121.518657
197,19211244,长沙市湖南省长沙市天心区人民西路155号佳龙湾新寓301号,长沙市,湖南省长沙市天心区人民西路155号佳龙湾新寓301号,湘贝碧斐,长沙贝碧斐丝医疗美容有限公司,5,1,4,1,35000.00元,28.18863,112.97342
198,19211245,佛山市乐从镇乐从社区居民委员会映翠北路2号乐从风度花园9座102号，9座105号之一至之四,佛山市,乐从镇乐从社区居民委员会映翠北路2号乐从风度花园9座102号，9座105号之一至之四,粤素研医,佛山顺德乐从素研医疗美容门诊部有限公司,39,31,8,30,360000.00元,22.94776,113.08318
199,19211246,深圳市深圳市罗湖区东门街道新园路深圳戏院中海商城三楼,深圳市,深圳,深圳美度,深圳市罗湖区美度医疗美容门诊部,403,232,171,231,4753320.00元,22.54567,114.11702
200,19211247,成都市成都市锦江区红星中路二段2号,成都市,成都市锦江区红星中路二段2号,伊莎贝拉,成都锦江伊莎贝拉医疗美容门诊部有限公司,176,114,62,113,2096290.00元,30.661011,104.08374
201,19211248,宁波市宁波市江北区环城北路西段728号,宁波市,宁波市江北区环城北路西段728号,nbhm,宁波江北韩美医疗美容门诊部有限公司,86,23,63,23,294539.00元,29.89623,121.53386
202,19211249,宁波市海曙区吴家路58号,宁波市,海曙区吴家路58号,宁方振玉,宁波海曙方振玉医疗美容诊所,69,42,27,42,609480.00元,29.84908,121.51376
203,19211250,成都市成都市锦江区一环路东五段55号阳光新业大厦1栋21楼2号,成都市,成都市锦江区一环路东五段55号阳光新业大厦1栋21楼2号,川派瑞思,成都锦江派瑞思医疗美容诊所有限公司,62,31,31,30,670070.00元,30.64362,104.090782
204,19211251,武汉市武汉市武昌区武珞路114号,武汉市,武汉市武昌区武珞路114号,鄂明星医,武汉市武昌区明星医疗美容门诊部,176,97,79,95,1678420.00元,30.54013,114.31333
205,19211254,宁波市宁波市江北区中马路537号,宁波市,宁波市江北区中马路537,nbsm,宁波江北尚美医疗美容门诊部有限公司,390,123,267,121,2448100.00元,29.88275,121.56285
206,19211255,长沙市长沙市天心区湘江中路二段18号江岸丽都大厦301室,长沙市,长沙市天心区湘江中路二段18号江岸丽都大厦301室,湘皕诚和,长沙市天心区皕诚和隽医疗美容门诊部,3,1,2,1,29800.00元,28.1927,112.9691
207,19211256,长沙市湖南省长沙市岳麓区咸嘉湖街道岳麓大道355号西城龙庭地下室及1-4栋商铺1005号,长沙市,湖南省长沙市岳麓区咸嘉湖街道岳麓大道355号西城龙庭地下室及1-4栋商铺1005号,湘润琪医,长沙市岳麓区润琪医疗美容门诊部,162,82,80,78,1743130.00元,28.22471,112.93057
208,19211257,武汉市洪山区鲁磨路6号联峰四楼,武汉市,洪山区鲁磨路6号联峰四楼,鄂希思特,武汉希思特医疗美容医院有限公司,33,14,19,14,251800.00元,30.5107,114.39989
209,19211258,武汉市武汉市东湖新技术开发区关山大道111号武汉光谷国际商务中心C栋2层01室,武汉市,武汉市东湖新技术开发区关山大道111号武汉光谷国际商务中心C栋2层01室,鄂康美莱,武汉康美莱医疗美容门诊部,73,34,39,34,497268.00元,30.50187,114.41293
210,19211259,武汉市武汉市硚口区工农路特1号武汉红星美凯龙世博家居广场一楼DA8073-DA8076,武汉市,武汉市硚口区工农路特1号武汉红星美凯龙世博家居广场一楼DA8073-DA8076,鄂雅美荟,武汉雅美荟医疗美容门诊部,1,0,1,0,0.00元,30.61789,114.16025
211,19211260,武汉市武汉市江岸区球场街融科天城二期T12栋1层商28号,武汉市,武汉市江岸区球场街融科天城二期T12栋1层商28号,鄂思美妍,武汉思美妍医疗美容有限公司,2,0,2,0,0.00元,30.59685,114.29622
212,19211262,深圳市深圳市福田区福田街道新洲路与福华三路交界东南城中雅苑7-8栋裙楼101号-2,深圳市,深圳市福田区福田街道新洲路与福华三路交界东南城中雅苑7-8栋裙楼101号-2,壹美健,深圳壹美健健康美容投资管理有限公司深圳壹美健医疗美容门诊部,23,6,17,6,99920.00元,22.53224,114.05199
213,19211263,武汉市武汉市江岸区大智路银泰大智嘉园A栋2层9、10、11、12、13、14、16、17号,武汉市,武汉市江岸区大智路银泰大智嘉园A栋2层9、10、11、12、13、14、16、17号,鄂克拉皇,武汉克拉皇后医疗美容门诊部,6,0,6,0,0.00元,30.590799,114.29393
214,19211264,长沙市营盘路260号湘江银座201号,长沙市,营盘路260号湘江银座201号,湘姬妍星,长沙姬妍星愿医疗美容有限公司,123,58,65,58,1234584.00元,28.20368,112.98155
215,19211265,上海上海市虹口区四川北路1350号利通广场201-201、209-210室,上海,,沪柔伊医,上海柔伊医疗美容门诊部有限公司,33,18,15,16,337400.00元,31.252744,121.484783
216,19211266,佛山市佛山市顺德区乐从镇荔南路A1号金威名轩105.106.107.121.122.123.124.125.126号商铺,佛山市,佛山市顺德区乐从镇荔南路A1号金威名轩105.106.107.121.122.123.124.125.126号商铺,粤启姬美,佛山市启姬美医疗美容门诊部有限公司,98,64,34,64,1015460.00元,22.958,113.08647
217,19211267,宁波市海曙区大梁街116号,宁波市,海曙区大梁街116号,宁波米,宁波海曙米阳医疗美容诊所有限公司,308,139,169,139,2178040.00元,29.870967,121.548835
218,19211268,杭州市上城区海运国际大厦1号楼902/903,杭州市,上城区海运国际大厦1号楼902/903,杭妃妮施,杭州妃妮施健康管理有限公司医疗美容诊所,21,7,14,7,160780.00元,30.214311,120.176117
219,19211269,宁波市宁波市江北区江安路391号,宁波市,宁波市江北区江安路391号,宁波雅韩,宁波江北雅韩医疗美容门诊部有限公司,98,49,49,49,778558.00元,29.88151,121.55667
220,19211270,宁波市海曙区柳庄巷6号,宁波市,海曙区柳庄巷6号,宁波米丽,宁波海曙米丽医疗美容诊所有限公司,62,33,29,33,560100.00元,29.87887,121.53829
221,19211271,上海上海市青浦区赵巷镇嘉松中路599弄72号3208、3209,上海,上海市青浦区赵巷镇嘉松中路599弄72号3208、3209,沪馥兰朵,上海馥兰朵医疗美容门诊部,20,5,15,4,98000.00元,31.197559,121.221184
222,19211272,成都市成都市武侯区航空路6号丰德国际广场A座3单元701，702室,成都市,成都市武侯区航空路6号丰德国际广场A座3单元701，702室,成都凯俪,成都武侯凯俪医疗美容门诊部有限公司,6,4,2,4,54043.00元,30.61615,104.07003
223,19211273,上海上海市长宁区镇宁路11号4楼,上海,上海市长宁区镇宁路11号4楼,沪蓝欧医,上海蓝鸥医疗科技有限公司新形象医疗美容诊所,66,44,22,44,597628.00元,31.21526,121.43833
224,19211274,广州市广州市白云区新市镇棠涌直巷1号1-3层,广州市,广州市白云区新市镇棠涌直巷1号1-3层,穗晨曦美,广州晨曦美容医院有限公司,37,11,26,10,128220.00元,23.19123,113.25586
225,19211275,广州市广州市海珠区江燕路192号,广州市,广州市海珠区江燕路192号,广艾美,广州艾美医疗美容门诊有限公司,52,14,38,14,198720.00元,23.07887,113.27793
226,19211276,南京市南京市建邺区乐山路167号26 27 28室,南京市,南京市建邺区乐山路167号26 27 28室,南京维格,南京维格医院管理有限公司建邺美容门诊部,26,10,16,10,274000.00元,32.01634,118.72246
227,19211277,宁波市宁波海曙区望京路130号,宁波市,海曙区望京路130号,时光美极,宁波海曙时光美极医疗美容诊所有限公司,114,65,49,65,1130000.00元,29.87866,121.54146
228,19211278,深圳市深圳市罗湖区,深圳市,深圳市罗湖区解放路北侧方海商院二楼,深宋志勇,宋志勇医疗美容诊所,34,21,13,20,385300.00元,22.54895,114.13111
229,19211279,长沙市芙蓉区长岛路8号,长沙市,芙蓉区长岛路8号,湘爱薇尔,湖南爱薇尔美容医疗有限公司,61,23,38,20,449378.00元,28.19631,113.0039
230,19211280,重庆重庆市渝北区龙山街道龙山路189号,重庆,重庆市渝北区,重庆莱森,重庆莱森医疗美容门诊部有限公司,17,9,8,8,122540.00元,29.58957,106.49974
231,19211281,合肥市金寨南路325号大华国际港B座17楼,合肥市,安徽省合肥市经济技术开发区青翠路南金寨南路东温州商城工程温州商城办2-1701-1706至2-1717-1719,合肥台美,合肥台美医疗美容门诊部有限公司                                                 ,42,5,37,5,50700.00元,31.78515,117.23075
232,19211282,广州市广州市天河区中山大道西140号409、410,广州市,广州市天河区中山大道西140号409、410,穗塑妍医,广州塑妍医疗美容门诊部有限公司,57,31,26,31,637502.00元,23.13419,113.35829
233,19211283,广州市广州市白云区云城街齐富路35号,广州市,广州市白云区云城街齐富路35号,广州韩妃,广州韩妃医学美容门诊部有限公司,598,291,307,286,3846927.00元,23.19389,113.26724
234,19211284,深圳市深圳市南山区南山街道登良路21号恒裕中心A座101,深圳市,深圳市南山区南山街道南油第二工业区205栋1层101铺,深圳雅唯,深圳雅唯门诊部有限公司,99,51,48,51,982018.00元,22.51108,113.92481
235,19211285,成都市成都市武侯区人民南路四段45号1栋1单元907，908号,成都市,成都市武侯区人民南路四段45号1栋1单元907，908号,川艾美薇,成都武侯艾美薇医疗美容门诊部有限公司,6,1,5,1,20000.00元,30.61561,104.06747
236,19211286,宁波市宁波市北仑区中河路399号银泰城1幢26号,宁波市,北仑区新碶中河路399号银泰城1幢3-26,宁波卡丽,宁波北仑卡丽医疗美容诊所有限公司,141,99,42,97,1191371.00元,29.89554,121.83174
237,19211287,合肥市合肥瑶海区临泉路万豪花园6Bc幢商铺311室,合肥市,合肥瑶海区临泉路万豪花园6Bc幢商铺311室,皖星之地,合肥瑶海区星之地医疗美容门诊部,185,97,88,97,1857490.00元,31.877569,117.314888
238,19211288,广州市广州市越秀区东风东路745号102，201,广州市,广州市越秀区东风东路745号102，201,粤健丽医,广州健丽医疗美容有限公司,10,4,6,4,59450.00元,23.13209,113.30412
239,19211289,南京市南京市建邺区扬子江大道399号海峡城5幢103-105,南京市,南京市建邺区扬子江大道399号海峡城5幢103-105,宁伊美莱,南京伊美莱医疗管理有限公司,120,93,27,90,2297780.00元,31.98093,118.68609
240,19211290,广州市广州市越秀区登峰街麓景西路下塘新村43—45号,广州市,广州市越秀区登峰街麓景西路下塘新村43—45号,粤丽尚医,广州越秀丽尚医疗美容门诊部（普通合伙）,6,1,5,1,14000.00元,23.144609,113.276108
241,19211291,深圳市深圳市罗湖区南湖街道嘉宾路20号爵士大厦C座10楼,深圳市,深圳市,深圳薇姿,深圳市微姿医疗管理有限公司微姿医疗门诊部,12,2,10,2,25000.00元,22.53967,114.11491
242,19211292,苏州市高新区狮山路75号峰汇大厦,苏州市,苏州市虎丘区高新区狮山路75号峰汇大厦,美贝尔,苏州美贝尔美容医院有限公司,627,371,256,352,7308920.00元,31.29341,120.56564
243,19211293,合肥市合肥市庐阳区长江中路365号CBD中央广场1-608室,合肥市,合肥市庐阳区长江中路365号CBD中央广场1-608室,皖崔劲松,合肥庐阳区崔劲松微创医疗美容门诊部,206,129,77,126,1686615.00元,31.86018,117.27203
244,19211295,宁波市宁波市江北区人民路653号,宁波市,宁波市江北区人民路653号,宁波尚丽,宁波江北尚丽整形外科门诊部有限公司,385,276,109,274,4171447.00元,29.8963,121.56844
245,19211296,宁波市宁波市海曙区青林商业中心151号,宁波市,海曙区青林商业中心151号,宁波芭比,宁波海曙芭比公主医疗美容门诊有限公司,101,25,76,24,440600.00元,29.898848,121.51992
246,19211297,武汉市湖北省武汉市江岸区京汉大道1234号,武汉市,湖北省武汉市江岸区京汉大道1234号,诠美,武汉市江岸区诠美医疗美容门诊部,25,3,22,3,35120.00元,30.59519,114.29871
247,19211298,武汉市武汉市硚口区解放大道1049号,武汉市,武汉市硚口区解放大道1049号,鄂华美医,武汉华美整形外科医院有限公司,14,5,9,4,29590.00元,30.57812,114.25484
248,19211299,武汉市武汉市江岸区百步亭世博园105栋1商铺,武汉市,武汉市江岸区百步亭世博园105栋1商铺,鹏爱静港,武汉鹏爱静港医疗美容门诊部有限责任公司,24,3,21,3,61800.00元,30.657631,114.316521
249,19211300,武汉市武汉市汉阳区鹦鹉大道48号天下名企汇2层C221、C222、213、212、3层B304号,武汉市,武汉市汉阳区鹦鹉大道48号天下名企汇2层C221、C222、213、212、3层B304号,鄂一美医,武汉一美医疗美容门诊部有限公司,107,43,64,43,806168.00元,30.55895,114.26589
250,19211301,成都市成都市武侯区浆洗街1，3号1栋1单元2层1号,成都市,成都市武侯区浆洗街1，3号1栋1单元2层1号,川正美,成都武侯正美医疗美容门诊部有限公司,28,11,17,11,150660.00元,30.639191,104.057091
251,19211302,长沙市开福区东风路街道芙蓉中路一段163号新时代广场第一栋811号房,长沙市,开福区东风路街道芙蓉中路一段163号新时代广场第一栋811号房,湘爱美尔,湖南爱美尔医疗美容有限公司,707,353,354,350,7534120.00元,28.21971,112.98802
252,19211304,南京市南京市建邺区福园街129-45号,南京市,南京市建邺区福园街129-45号,宁伊美辰,南京市建邺区伊美辰医疗美容诊所,147,89,58,89,1762930.00元,32.03117,118.7375
253,19211305,南京市南京市建邺区福园街131号2912室,南京市,南京市建邺区福园街131号2912室,宁颜术,南京颜术医疗美容诊所有限公司,189,85,104,82,1676200.00元,32.03078,118.73745
254,19211306,广州市广州市天河区马场路519号101a,广州市,广州市天河区马场路519号101a,广懿美秀,广州懿美秀医疗门诊部有限公司,73,36,37,36,708102.00元,23.12291,113.34321
255,19211307,宁波市宁波市50号鄞州区天童南路578弄,宁波市,宁波市鄞州区天童路578弄50号,宁波颜术,宁波颜术新蕾医疗美容诊所有限公司,10,5,5,5,62492.00元,29.80831,121.54791
256,19211308,武汉市武汉市武昌区新生路与临江大道交汇处地铁二号线江南风井物业,武汉市,武汉市武昌区新生路与临江大道交汇处地铁二号线江南风井物业,禾丽康美,武汉禾丽康美医疗美容医院有限公司,1036,689,347,679,13097440.00元,30.56952,114.3104
257,19211310,成都市成都市武侯区龙腾东路36号（中海大厦）1栋1层4号，1栋2层6-15号,成都市,成都市武侯区龙腾东路36号（中海大厦）1栋1层4号，1栋2层6-15号,川素美,成都素美医疗美容门诊部有限公司,50,15,35,14,213526.00元,30.65211,104.01894
258,19211311,"长沙市开福区通泰街街道中山路589号开福万达广场商业综合体26001,26002号房",长沙市,"开福区通泰街街道中山路589号开福万达广场商业综合体26001,26002号房",湘米兰柏,长沙市米兰柏菲医疗美容有限责任公司,133,82,51,82,1309540.00元,28.19878,112.97165
259,19211312,广州市广州市白云区云城南二路175号,广州市,广州市白云区云城南二路175号,广州智媄,广州市智媄医疗投资有限公司,186,45,141,43,819484.00元,23.17261,113.26483
260,19211314,广州市广州市天河区金穗路28号401,广州市,广州市天河区金穗路28号401,广州唯伊,广州唯伊医疗美容门诊部,138,65,73,65,1415400.00元,23.1236,113.31772
261,19211315,深圳市深圳市南山区南山街道南山大道亿利达大厦1栋2楼,深圳市,广东省深圳市,多米勒,深圳市多米勒医疗美容门诊部有限公司,1060,668,392,667,12416945.00元,22.517321,113.922234
262,19211316,长沙市长沙市雨花区曙光中路55号,长沙市,长沙市雨花区曙光中路55号,湘丽恩,长沙市雨花区丽恩医疗美容门诊部有限公司,355,185,170,184,4434300.00元,28.18365,113.00258
263,19211317,长沙市长沙市岳麓区咸嘉湖街道银谷国际社区湘腾城市广场1栋2206号,长沙市,长沙市岳麓区咸嘉湖街道银谷国际社区湘腾城市广场1栋2206号,湘博南,长沙博南医疗管理有限公司,61,27,34,27,674200.00元,28.21978,112.93633
264,19211321,苏州市高新区狮山路75号102.202.203.302.303,苏州市,苏州市虎丘区高新区狮山路75号峰汇大厦,美贝尔,苏州美贝尔美容医院,254,158,96,157,2527055.00元,31.29341,120.56564
265,19211322,合肥市合肥市包河区屯溪路33号恒兴广场A座4/5层,合肥市,合肥市包河区屯溪路33号恒兴广场A座4/5层,合肥艾雅,合肥艾雅医疗美容医院有限公司,145,60,85,60,1014165.00元,31.84853,117.30634
266,19211323,成都市成都市青羊区玉沙路142号,成都市,成都市青羊区玉沙路142号,军大,成都军大医院有限公司,42,7,35,6,125126.00元,30.667063,104.078774
267,19211324,武汉市武汉汉阳区汉阳大道135号人信汉商银座第E座607-614号房,武汉市,武汉汉阳区汉阳大道135号人信汉商银座第E座607-614号房,鄂名韩医,武汉名韩医疗美容门诊部,37,19,18,19,409000.00元,30.54906,114.266164
268,19211325,成都市成都高新区二环路南三段15号,成都市,成都高新区二环路南三段15号,四川娇点,四川娇点医学美容医院有限公司,57,14,43,14,198777.00元,30.62087,104.05724
269,19211326,深圳市深圳市福田区香蜜湖街道侨香路1979文化创意A区1栋4层403,深圳市,深圳市,深一生约,深圳市一生约医疗美容门诊部有限公司,2,0,2,0,0.00元,22.5519,114.03013
270,19211327,广州市广州市天河区天河北路侨林街59号,广州市,广州市天河区天河北路侨林街59号,广州卡门,广州市卡门诊所有限公司,103,67,36,67,1023283.00元,23.14347,113.33011
271,19211328,广州市广州市越秀区小北路138号102-108房,广州市,广州市越秀区小北路138号102-108房,广州博美,广州市越秀区博美整形美容门诊部（普通合伙）,312,193,119,193,3570324.00元,23.13462,113.27193
272,19211329,"长沙市长沙市开福区通泰街街道营盘路6号潮宗御苑A,B,C栋N单元106,107号",长沙市,"长沙市开福区通泰街街道营盘路6号潮宗御苑A,B,C栋N单元106,107号",湘拉芙丽,长沙拉芙丽医疗美容有限公司,157,54,103,54,1179700.00元,28.20518,112.97236
273,19211330,武汉市洪山区徐东大街97号,武汉市,洪山区徐东大街97号,五洲莱美,武汉五洲莱美整形美容医院有限公司,46,15,31,15,289664.00元,30.58466,114.35187
274,19211331,广州市广州市荔湾区西湾路138号,广州市,广州市荔湾区西湾路138号首层，二层,粤广大医,广州广大医院有限公司,489,244,245,242,4002410.00元,23.14703,113.24244
275,19211332,宁波市宁波市鄞州区彩虹南路80号,宁波市,宁波市鄞州区彩虹南路80号,宁波同仁,宁波鄞州同仁医院,55,37,18,35,510262.00元,29.86168,121.56704
276,19211333,广州市广州市海珠区宸悦路26号,广州市,广州市海珠区宸悦路26号,广婕熹卡,广州美康婕熹卡医疗美容门诊部有限公司,807,486,321,482,11607254.00元,23.1022,113.38441
277,19211334,广州市广州市天河区中山大道中267号,广州市,广州市天河区中山大道中267号,广韩佳人,广州韩佳人医疗美容门诊部有限公司,111,22,89,21,424060.00元,23.12433,113.40225
278,19211335,合肥市安徽合肥庐阳区长江中路369号CBD中央广场办公楼十六层C区,合肥市,安徽合肥庐阳区长江中路369号CBD中央广场办公楼十六层C区,合肥光美,合肥光美医疗整形美容有限责任公司,411,247,164,247,5041365.00元,31.85986,117.27104
279,19211336,广州市广州市天河区金穗路68号102号,广州市,广州市天河区金穗路68号102号,广州姬妍,广州姬妍医疗美容门诊部有限公司,217,94,123,93,2109760.00元,23.12281,113.32896
280,19211337,广州市广州市海珠区江景街3号202,广州市,广州市海珠区江景街3号202,广州今生,广州今生医疗美容门诊有限公司,4,1,3,1,30000.00元,23.100744,113.295769
281,19211338,无锡市无锡市广益路311号2001-2018,无锡市,无锡市广益路311号2001-2018,苏沁医美,梁溪区沁美医疗美容诊所,47,16,31,15,290340.00元,31.59388,120.32832
282,19211342,杭州市杭州市下城区体育场路335、337号二楼至五楼,杭州市,杭州市下城区体育场路335、337号二楼至五楼,杭格莱美,杭州格莱美医疗美容医院有限公司,625,423,202,415,6959324.00元,30.27018,120.16134
283,19211343,宁波市慈溪市古塘街道开发大道508号,宁波市,慈溪市古塘街道开发大道508,慈溪城东,宁波慈溪城东医院,6,4,2,3,28800.00元,30.18263,121.26205
284,19211344,宁波市宁波市海曙仓桥街29号,宁波市,宁波市海曙仓桥街29号,宁纤之美,宁波海曙纤之美医疗美容诊所有限公司,1,1,0,1,12800.00元,29.86356,121.54821
285,19211345,广州市广州市白云区远景路54号,广州市,广州市白云区远景路54号,广州远东,广州远东美容医院有限公司,6,0,6,0,0.00元,23.17282,113.2579
286,19211346,佛山市佛山市禅城区华远东路12号首层3号铺,佛山市,佛山市禅城区华远东路12号首层3号铺,粤大伊美,广东大伊美健康产业发展有限公司,76,39,37,39,699800.00元,23.00836,113.11673
287,19211347,合肥市安徽省合肥市包河区屯溪路251号世纪云顶大厦A栋3-201室,合肥市,安徽省合肥市包河区屯溪路251号世纪云顶大厦A栋3-201室,合肥立新,安徽立新医学美容有限公司,10,3,7,3,29300.00元,31.84723,117.28519
288,19211348,合肥市安徽省合肥市长江中路343号四联大厦1幢201室,合肥市,安徽省合肥市长江中路343号四联大厦1幢201室,合肥恒美,合肥恒美医疗美容门诊部有限公司,11,3,8,3,21040.00元,31.86085,117.27487
289,19211349,无锡市无锡市广南路588号,无锡市,无锡市广南路588号,无锡渼璟,无锡渼璟医疗美容有限公司,21,6,15,6,220000.00元,31.59413,120.33768
290,19211351,南京市南京市鼓楼区中山北路30号4701,南京市,南京市鼓楼区中山北路30号4701室,美格利合,南京美格利合医疗美容有限公司,20,7,13,5,126000.00元,32.06233,118.78076
291,19211352,武汉市硚口区解放大道348号,武汉市,硚口区解放大道348号,鄂仁爱医,武汉仁爱医院有限公司,14,1,13,1,10000.00元,30.57517,114.24381
292,19211353,武汉市武昌区杏林西路8号,武汉市,武昌区杏林西路8号,武汉美莱,武汉美莱医疗美容医院有限公司,212,114,98,113,1308167.00元,30.55553,114.34859
293,19211354,厦门市厦门市思明区湖滨南路813号之一至之七、湖滨南路815号之一,厦门市,厦门市思明区湖滨南路813号之一至七、湖滨南路815号之一,黄岩医疗,厦门市思明区黄岩整形外科门诊部,65,15,50,15,250798.00元,24.47713,118.1191
294,19211355,合肥市合肥市包河区马鞍山南路鼎盛时代广场9幢2-103、2-203,合肥市,合肥是包河区马鞍山南路鼎盛时代广场9幢2-103、2-203,合肥红妆,合肥红妆美容医院有限公司,57,32,25,31,426640.00元,31.825399,117.300957
295,19211356,深圳市深圳市罗湖区南湖街道人民南路2010深圳发展中心大厦1栋1902,深圳市,深圳市,深美瑞颜,深圳市美瑞颜健康管理咨询有限公司,17,5,12,5,82000.00元,22.53832,114.11928
296,19211358,重庆重庆市渝中区青年路8号,重庆,重庆市渝中区,江之南,重庆江之南医疗美容有限公司,2,0,2,0,0.00元,29.558268,106.576419
297,19211359,宁波市宁波市海曙区青林湾街6号,宁波市,宁波市海曙区青林湾街6号,宁波神话,宁波海曙神话医疗美容诊所有限公司,97,54,43,54,1827700.00元,29.90021,121.52685
298,19211360,广州市广州市越秀区天河区3号301房,广州市,广州市越秀区天河区3号301房,广美诗沁,广州美诗沁医疗美容有限公司,36,7,29,7,134800.00元,23.12463,113.36199
299,19211362,南京市南京市鼓楼区石头城117号101、102、103室,南京市,南京市鼓楼区石头城117号101、102、103室,南京美贝,南京美贝尔美容医院有限公司,19,3,16,3,27200.00元,32.066078,118.748894
300,19211363,常州市钟楼区怀德北路53号,常州市,钟楼区怀德北路53号,常州美贝,常州美贝尔医疗美容医院有限公司,85,31,54,31,487180.00元,31.78741,119.95102
301,19211364,重庆重庆市南岸区南滨路第一大道9号,重庆,重庆市南岸区南滨路第一大道9号,重庆星宸,重庆星宸整形美容医院有限公司,517,362,155,360,4117320.00元,29.54249,106.581299
302,19211365,无锡市无锡金石路20号,无锡市,无锡金石路20号,无锡万春,无锡万春医疗美容门诊部,2,0,2,0,0.00元,31.51992,120.2968
303,19211366,广州市广州市越秀区中山一路102号首层至四层,广州市,广州市越秀区中山一路102号首层至四层,粤博研医,广州博研医疗美容门诊部有限公司,14,4,10,4,66240.00元,23.12466,113.29706
304,19211367,厦门市厦门市思明区仙岳路1159号,厦门市,厦门市思明区仙岳路1159号,闽圣望,厦门市圣望美容服务有限公司,18,7,11,7,107401.00元,24.49839,118.148483
305,19211368,厦门市厦门市思明区厦禾路983号121单元.207单元,厦门市,厦门市思明区厦禾路983号121单元.207单元,闽薇格,厦门思明薇格医疗美容门诊部有限公司,176,85,91,83,1404667.00元,24.47314,118.11889
306,19211369,合肥市合肥市屯溪路349号,合肥市,合肥市屯溪路349号,合肥丽人,合肥丽人妇科医院,159,75,84,74,860117.00元,31.84719,117.2792
307,19211370,厦门市厦门市思明区莲花南路6号第三层303单元,厦门市,厦门市思明区莲花南路6号第三层303单元,闽海明,厦门思明海明医疗美容诊所,163,88,75,83,1871910.00元,24.4824,118.12375
308,19211372,武汉市武昌区徐东大街28号福星惠誉国际城9栋7单元45号,武汉市,武昌区徐东大街28号福星惠誉国际城9栋7单元45号,亚太整形,宜昌亚太整形美容医院有限公司武昌医疗美容门诊部,805,455,350,454,9407199.00元,30.588729,114.346667
309,19211373,成都市成都市龙泉驿区龙泉街道龙都南路3号海川国际1栋2层203号,成都市,成都市龙泉驿区龙泉街道龙都南路3号海川国际1栋2层203号,川欧菲医,龙泉驿区龙泉街办欧菲医疗美容诊所,17,12,5,12,184484.00元,30.56324,104.26108
310,19211374,广州市广州市番禺区市桥街禺山大道180号,广州市,广州市番禺区市桥街禺山大道180号,粤美贝尔,广州美贝尔医院有限公司,35,14,21,14,239224.00元,22.94073,113.35515
311,19211375,"厦门市厦门市思明区厦禾路986号210-213，,218-221,233-235,240-243,251-253单元",厦门市,"厦门市思明区厦禾路986号210-213，,218-221,233-235,240-243,251-253单元",闽银河,厦门银河医疗美容有限公司,134,75,59,74,1347359.00元,24.47068,118.11735
312,19211376,长沙市长沙市天心区南湖路458号,长沙市,长沙市天心区南湖路458号,湘南湖,长沙南湖和睦医院有限公司,7,1,6,1,20000.00元,28.1653,112.97118
313,19211377,长沙市天心区书院南路799号,长沙市,天心区书院南路799号,湘珂迷,湖南珂迷医疗美容有限公司,57,27,30,27,561600.00元,28.16416,112.97044
314,19211378,南京市南京市鼓楼区中央北路3号之1-10,南京市,南京市鼓楼区中央北路3号之1-10,南京美约,南京美约医疗美容医院有限公司,182,105,77,103,1980452.00元,32.0928,118.78418
315,19211379,厦门市厦门市思明区仙岳路463-467号聚祥花园A栋201单元及三层,厦门市,厦门市思明区仙岳路463-467号聚祥花园A栋201单元及三层,厦门欧菲,欧菲（厦门）医疗美容有限公司,680,423,257,420,7120957.00元,24.49465,118.11586
316,19211380,成都市成都市金牛区二环路西三段2号,成都市,成都市金牛区二环路西三段2号,西区医院,成都市西区医院,134,71,63,71,1003537.00元,30.682866,104.027288
317,19211381,厦门市厦门市思明区湖滨南路91号非矿大厦2H-1,厦门市,厦门市思明区湖滨南路91号非矿大厦2H-1,闽安黛美,厦门安黛美医疗美容有限公司,48,17,31,16,177401.00元,24.46969,118.0929
318,19211382,深圳市深圳市罗湖区东门街道东门中路1011号鸿基大厦第4层,深圳市,广东省深圳市罗湖区东门街道东门中路1011号鸿基大厦第4层,深贝加美,深圳贝加美医疗美容门诊部有限公司,601,347,254,346,5820699.00元,22.54473,114.12148
319,19211383,长沙市雨花区左家塘街道韶山北路355号,长沙市,雨花区左家塘街道韶山北路355号,湘禾丽,长沙市雨花区丽美泓爱伊莎贝尔医疗美容门诊部,9,6,3,6,108900.00元,28.17756,112.99708
320,19211384,宁波市宁波市海曙区环城西路南段191号,宁波市,宁波市海曙区环城西路南段191,宁波典范,宁波海曙典范医疗美容,5,1,4,1,15000.00元,29.87273,121.52219
321,19211385,广州市广州市海珠区新港西路1号首层北部自编之一,广州市,广州市海珠区新港西路1号首层北部自编之一,粤艺美医,广州可玫尔艺美医疗美容门诊部,188,77,111,77,1365678.00元,23.09603,113.28368
322,19211386,长沙市开福区四方坪街道双拥路596号,长沙市,开福区四方坪街道双拥路596号,湘新健康,长沙市开福区新健康医疗美容诊所,20,9,11,9,138800.00元,28.23706,113.00217
323,19211387,深圳市深圳市福田区梅华路252号1-3楼,深圳市,广东省深圳市福田区,深圳广济,深圳广济门诊部有限公司,8,1,7,1,8000.00元,22.56156,114.04057
324,19211388,厦门市厦门市思明区白鹭洲67、69、71号店面,厦门市,厦门市思明区白鹭洲67、69、71号店面,厦门兰的,厦门思明兰的整形外科门诊部有限公司,153,55,98,54,1034866.00元,24.47072,118.09301
325,19211389,广州市广州市天河区花城大道3-7号二层自编E01-E09.F01-F09.G01-G10.H01-H08,广州市,广州市天河区花城大道3-7号二层自编E01-E09.F01-F09.G01-G10.H01-H08,粤军美医,广州军美医疗美容门诊部有限公司,117,71,46,69,1195227.00元,23.1201,113.31676
326,19211390,深圳市深圳市,深圳市,深圳市南山区沙河街道沙河东路世纪村七栋裙楼202号,深圳积美,深圳积美医学美容门诊部有限公司,10,0,10,0,0.00元,22.55329,113.88308
327,19211391,上海上海市中山东二路22号302,上海,上海市中山东二路22号302,亚珀医疗,上海亚柏医疗美容诊所有限公司,1,0,1,0,0.00元,31.23074,121.49403
328,19211392,广州市广州市天河区黄埔大道西路201号之一2楼100号铺,广州市,广州市天河区黄埔大道西路201号之一2楼100号铺,粤飞悦美,广州飞悦信息科技有限公司,9,1,8,0,0.00元,23.12673,113.338333
329,19211393,重庆渝中区五四路28号赛格尔大厦11-2,重庆,重庆市渝中区五四路28号赛格尔大厦11-2,渝赛格尔,渝中区五四路赛格尔医疗美容门诊部,30,14,16,14,280480.00元,29.55903,106.57702
330,19211394,成都市成都市金牛区一环路北三段1号1栋室内步行街【5】层【5F-07、5F-08】号,成都市,成都市金牛区一环路北三段1号1栋室内步行街【5】层【5F-07、5F-08】号,川韩艺医,成都金牛韩艺医学美容门诊部有限责任公司,34,20,14,18,305564.00元,30.688102,104.073572
331,19211395,广州市广州市天河区花城大道华府街758号11-2铺,广州市,广州市天河区花城大道华府街758号11-2铺,粤泛美医,广州市天河区珠江新城泛美泓涵综合医疗门诊部,19,12,7,12,300180.00元,23.11685,113.34312
332,19211396,宁波市宁波市海曙区丽园北路澄波街282号,宁波市,海曙区丽园北路澄波街282号,宁波茉莉,宁波海曙茉莉雅和医疗美容诊所有限公司,11,6,5,6,72600.00元,29.88488,121.51871
333,19211397,长沙市天心区芙蓉中路三段558号建鸿达现代大厦924-929,长沙市,天心区芙蓉中路三段558号建鸿达现代大厦923房,湘圣雅,湖南圣雅医疗美容医院有限公司,8,2,6,2,32800.00元,28.14882,112.98492
334,19211398,成都市成都市青羊区万和路99号,成都市,成都市青羊区万和路99号,川百龄博,青羊区百龄博雅医疗美容门诊部,405,310,95,304,5304487.00元,30.67489,104.0601
335,19211399,佛山市佛山市禅城区华远东路2号,佛山市,佛山市禅城区华远东路2号,粤苏李秀,佛山市禅城区苏李秀英医院,859,565,294,564,9829160.00元,23.01041,113.11669
336,19211400,长沙市长沙市天心区芙蓉南路一段181号梅岭苑11栋综合楼601房,长沙市,长沙市天心区芙蓉南路一段181号梅岭苑11栋综合楼601房,湘温宏,长沙市天心区温宏医疗美容诊所,18,15,3,15,174780.00元,28.13789,112.98741
337,19211403,广州市广州白云区广州大道北1170号,广州市,广州白云区广州大道北1170号,广州微美,广州圣心微美医疗门诊部有限公司,28,14,14,13,214400.00元,23.17908,113.32151
338,19211404,广州市广州市海珠区鳌洲大街28号,广州市,广州市海珠区鳌洲大街28号,广州素医,广州素医医疗美容门诊部有限公司,76,52,24,52,1289439.00元,23.10626,113.254242
339,19211406,苏州市龙西路298号,苏州市,,维多利亚,苏州维多利亚美容医院有限公司,259,136,123,130,2086309.00元,31.26827,120.61273
340,19211407,厦门市厦门市思明区湖滨东路90号1层1-4号商场、2层1-11号商场,厦门市,厦门市思明区湖滨东路90号1层1-4号商场、2层1-11号商场,厦门美莱,厦门美莱医疗美容门诊部有限公司,893,637,256,626,8922947.00元,24.47293,118.1128
341,19211408,成都市中国（四川）自由贸易试验区成都高新区天府二街99号A座5楼501-510号,成都市,中国（四川）自由贸易试验区成都高新区天府二街99号A座5楼501-510号,川圣美汇,成都高新圣美汇医学美容门诊部有限公司,145,69,76,66,1476320.00元,30.55064,104.06582
342,19211409,南京市南京市鼓楼区中山北路281号811A室,南京市,南京市鼓楼区中山北路281号811A室,宁拂斑堂,南京拂斑堂美容有限公司,29,10,19,8,91160.00元,32.07756,118.76225
343,19211410,长沙市湖南省长沙市芙蓉区朝阳街街道科佳朝阳数码街2-2-01号,长沙市,湖南省长沙市芙蓉区朝阳街街道科佳朝阳数码街2-2-01号,湘申美,长沙申美美容医院有限公司,14,3,11,3,64400.00元,28.187981,113.007103
344,19211411,厦门市厦门市思明区湖滨北路183号之二(一楼、二楼）,厦门市,厦门市思明区厦禾路1036号四楼F068,闽伊美,厦门思明伊美整形外科门诊部有限公司,4,0,4,0,0.00元,24.48881,118.12365
345,19211412,长沙市湖南省长沙市望城区高塘岭街道郭亮中路501号2楼北侧,长沙市,湖南省长沙市望城区高塘岭街道郭亮中路501号2楼北侧,湘易曦,长沙市岳麓区爱芮思医疗美容门诊部,312,193,119,187,5554015.00元,28.3437,112.81592
346,19211415,芜湖市芜湖市镜湖区世贸滨江花园4-1#特色商业街B区201-202,芜湖市,芜湖市镜湖区世贸滨江花园4-1#特色商业街B区201-202,安徽一秒,安徽一秒医疗美容医院有限公司,192,148,44,146,2891870.00元,31.341579,118.357201
347,19211416,杭州市杭州市西湖区留下街道花坞30号,杭州市,杭州市西湖区留下街道花坞30号,赫瑞拉,杭州赫瑞拉医疗美容门诊部有限公司,110,72,38,70,1925980.00元,30.249695,120.074631
348,19211418,重庆重庆市观音桥,重庆,重庆,美伽医疗,重庆美伽医疗美容门诊部有限公司,25,9,16,9,152826.00元,29.87961,106.776558
349,19211419,厦门市厦门市思明区仙岳路297号之二、之三,厦门市,厦门市思明区仙岳路297号之二、之三,厦门雅韩,厦门美英雅韩医疗美容门诊部有限公司,111,62,49,62,1643400.00元,24.49287,118.10817
350,19211420,厦门市厦门市思明区凤屿路2号一层至四层,厦门市,厦门市思明区凤屿路2号一层至四层,脸博士,厦门脸博士整形外科门诊部有限公司,52,23,29,22,242742.00元,24.4713,118.11663
351,19211421,杭州市上城区秋涛路248号秋涛发展大厦B幢一层部分、二层至十层全部,杭州市,上城区秋涛路248号秋涛发展大厦B幢一层部分、二层至十层全部,杭华山连,杭州华山连天美医疗美容医院有限公司,785,588,197,584,11105256.00元,30.233027,120.187251
352,19211422,成都市成都市武侯区武侯大道双楠段108号,成都市,成都市武侯区武侯大道双楠段108号,星尚美美,成都星尚美美容医院有限公司,138,82,56,82,1557534.00元,30.63426,104.00945
353,19211424,南京市南京市建邺区江东中路110号2801，2802，2803，2804，2812室,南京市,南京市建邺区江东中路110号,南京天际,南京天际美容医院有限公司,1,0,1,0,0.00元,32.02953,118.73792
354,19211425,"芜湖市芜湖市镜湖区吉园小区4幢04-s20.04-s23,05幢05-w24.05-w25",芜湖市,"芜湖市镜湖区吉园小区4幢04-s20.04-s23,05幢05-w24.05-w25",安徽爱容,芜湖爱容医疗美容门诊部,17,3,14,3,29281.00元,31.334261,118.362923
355,19211426,深圳市深圳市罗湖区东门街道东门中路2013号九龙城广场七层7D,深圳市,深圳市罗湖区东门街道东门中路2013号九龙城广场七层7D,深圳美颜,深圳美颜医疗美容门诊部有限公司,55,14,41,14,231000.00元,22.54586,114.12153
356,19211427,成都市武侯区长益街50号2栋3层301号,成都市,成都市武侯区长益街50号2栋2单元301号,川妤悦医,成都武侯妤悦医疗美容门诊部有限公司,51,33,18,33,542795.00元,30.62372,104.02985
357,19211428,武汉市武汉市江岸区京汉大道952号金色未来大厦A单元1层1室,武汉市,武汉市江岸区京汉大道952号金色未来大厦A单元1层1室,鄂美仑,武汉美仑医疗美容门诊部,2,2,0,2,22800.00元,30.58854,114.29128
358,19211430,"上海上海市静安区南京西路818号401,402,414,417,418",上海,"上海市静安区南京西路818号401,402,414,417,418",沪至仁医,上海至仁医疗美容门诊部有限公司,11,5,6,5,141000.00元,31.23093,121.461
359,19211431,厦门市厦门市思明区鹭江道2号1108、1109室,厦门市,厦门市思明区鹭江道2号1108、1109室,厦门福华,厦门市思明区福华医疗美容诊所,28,5,23,3,39000.00元,24.44929,118.08004
360,19211432,广州市广州市越秀区人民北路668号首层,广州市,广州市越秀区人民北路668号首层,粤科发源,广州科发源医疗美容门诊部有限公司,155,85,70,83,1484861.00元,23.136,113.25689
361,19211433,宁波市古塘街道三北大街210号,宁波市,古塘街道三北大街210号,CXYE,慈溪悦尔医学美容医院有限公司,18,8,10,8,92360.00元,30.17275,121.262703
362,19211434,长沙市长沙市岳麓区学士街道学丰路908号麓山花苑1栋204号,长沙市,,湘瑞美,长沙市岳麓区瑞美门诊部,2,1,1,1,20000.00元,28.14168,112.88744
363,19211435,苏州市玉山镇柏庐中路355.357.359号,苏州市,,时光医疗,昆山时光医疗美容门诊部有限公司,2,1,1,1,13060.00元,31.40863,120.951942
364,19211436,成都市成都市武侯区科华北北路58号C栋8层11号,成都市,成都市武侯区科华北北路58号C栋8层11号,川果美医,成都武侯果美医疗美容诊所有限公司,16,12,4,12,125860.00元,30.646086,104.106049
365,19211437,成都市成都市武侯区人民南路四段11号附1号大陆国际写字楼20楼03、04号,成都市,成都市武侯区人民南路四段11号附1号大陆国际写字楼20楼03、04号,川婵颜医,成都武侯婵颜医疗美容诊所有限公司,53,38,15,36,641019.00元,30.62851,104.06707
366,19211438,厦门市厦门市海沧区沧林东路85号A1、C3,厦门市,厦门市海沧区沧林东路85号A1、C3,欧尔美,厦门市海沧区欧尔美医疗美容门诊部,9,6,3,6,65060.00元,24.48824,118.0514
367,19211439,成都市成都市锦江区琉璃路289号1层,成都市,成都市锦江区琉璃路289号1层,川香约医,成都锦江香约医疗美容诊所有限公司,13,4,9,4,91160.00元,30.6164,104.09302
368,19211440,大理白族自治州云南省大理白族自治区大理市下关镇大关邑141号,大理白族自治州,云南省大理白族自治区大理市下关镇大关邑141号,素研医疗,大理市素研医疗美容诊所,96,48,48,48,599080.00元,25.601801,100.221588
369,19211441,武汉市武汉市硚口区硚口路160号武汉城广场1栋2层1室、3层1室,武汉市,武汉市硚口区硚口路160号武汉城广场1栋2层1室、3层1室,武汉美嘉,武汉美嘉医疗美容医院,80,59,21,58,896467.00元,30.57352,114.2517
370,19211442,广州市广州市天河区华庭路5号二层201房自编号02商铺,广州市,广州市天河区华庭路5号二层201房自编号02商铺,广州皇佳,广州天河皇佳贝丽医疗美容门诊部有限公司,6,1,5,1,30000.00元,23.14504,113.32982
371,19211443,石家庄市河北省石家庄市桥西区槐安东路37号、39号瑞特家园103、104、105,石家庄市,河北省石家庄市桥西区槐安西路37号、39号瑞特家园103/104/105,蓝山美容,石家庄蓝山医疗美容医院有限公司,42,18,24,18,263167.00元,38.022167,114.50404
372,19211445,南京市南京市建邺区云河路43号,南京市,南京市建邺区云河路43号,宁联医美,南京联医美医院投资管理有限公司,110,72,38,72,1546748.00元,32.02178,118.76142
373,19211446,厦门市厦门思明区厦禾路913号,厦门市,厦门思明区厦禾路913号,厦门时光,厦门思明区华美医疗美容门诊部,140,48,92,48,544958.00元,24.46981,118.11542
374,19211447,石家庄市河北省石家庄市桥西区建设南大街150号国富大厦105室,石家庄市,河北省石家庄市桥西区建设南大街150号国富大厦105室,艾麦德,石家庄艾麦德医疗美容门诊部,9,2,7,2,73000.00元,38.020929,114.509275
375,19211448,"成都市成都武侯区盛丰路30号1栋3层附301,302,303号",成都市,"成都武侯区盛丰路30号1栋3层附301,302,303号",川武侯恩,成都武侯恩喜整形医疗美容门诊部有限公司,245,141,104,134,2496929.00元,30.63665,104.0195
376,19211449,苏州市苏州市憩桥巷9号,苏州市,,乐桥皮肤,苏州乐桥皮肤专科门诊部,1,1,0,1,11800.00元,31.30507,120.6219
377,19211450,厦门市思明区嘉禾路128号一层局部、二层及二层夹层,厦门市,厦门思明区嘉禾路128号一层局部、二层及二层夹层,闽莫琳娜,厦门思明莫琳娜医疗美容门诊部,206,144,62,144,2007138.00元,24.4848,118.12434
378,19211452,南京市南京鼓楼区草场门大街126号,南京市,南京鼓楼区草场门大街126号,南京东美,南京东美医疗美容有限公司,25,14,11,13,220960.00元,32.05807,118.73758
379,19211453,长沙市长沙市开福区东风路街道芙蓉中路一段191号（湖南好来登酒店有限公司）12楼,长沙市,长沙市开福区东风路街道芙蓉中路一段191号湖南好来登酒店有限公司12楼,湘艾依美,长沙艾依美医疗美容有限公司,22,14,8,14,200070.00元,28.21837,112.98741
380,19211454,杭州市杭州市西湖区学院路77号,杭州市,杭州市西湖区学院路77号,真时医美,杭州真时医疗美容诊所有限公司,4,1,3,1,20000.00元,30.27518,120.12619
381,19211455,石家庄市石家庄市长安区广安大街15号管鲤商务楼二层,石家庄市,石家庄市长安区广安大街15号管鲤商务楼二层,巍名仕,石家庄巍名仕医疗美容医院有限公司,18,13,5,13,221330.00元,38.04471,114.523373
382,19211456,镇江市镇江市润州区北府路10号,镇江市,镇江市润州区北府路10号,镇江华美,镇江市润州区华美医疗美容门诊部,69,21,48,21,271342.00元,32.19695,119.44515
383,19211457,深圳市深圳市罗湖区东门街道东门中路2088号温莎广场二层2F-07号,深圳市,深圳市,深圳深美,深圳深美医疗美容门诊部有限公司,14,6,8,6,146400.00元,22.54974,114.12323
384,19211458,长沙市湖南省长沙市芙蓉区五一大道158号瑞潇湘国际3楼,长沙市,湖南省长沙市芙蓉区五一大道158号人瑞潇湘国际3楼,湘叶子,长沙市芙蓉区叶子医疗美容门诊部,23,18,5,17,252000.00元,28.19454,113.00457
385,19211460,苏州市昆山市玉山镇前进西路156-1号,苏州市,昆山市玉山镇前进西路156-1号,铂特丽,昆山铂特丽医疗美容门诊部有限公司,39,14,25,14,106119.00元,31.38283,120.96058
386,19211461,成都市成都市营门口路50号,成都市,成都市营门口路50号,成都恒博,成都恒博医院有限公司,158,97,61,96,1817692.00元,30.68345,104.04324
387,19211462,成都市成都高新区,成都市,成都市高新区益州大道北段777号4栋4层403号,川恩美医,成都高新恩美医疗美容门诊部有限公司,2,1,1,1,7600.00元,30.55303,104.075623
388,19211463,广州市广州市天河区燕岭路451号一至九楼,广州市,广州市天河区燕岭路451号一至九楼,广州胜康,广州胜康医院,2,0,2,0,0.00元,23.16826,113.33722
389,19211464,肇庆市肇庆市豪居路54号，61号，63号,肇庆市,肇庆市豪居路54号，61号，63号,粤民和医,肇庆民和医院,432,297,135,295,4442824.00元,23.04827,112.46706
390,19211465,重庆重庆沙坪坝华宇广场36-3,重庆,重庆市沙坪坝华宇广场36号附3号,柳叶刀,沙坪坝柳叶刀医疗美容门诊部,47,20,27,19,302400.00元,29.555099,106.462418
391,19211466,宁波市宁波市鄞州区和济街181号,宁波市,宁波市鄞州区和济街181号,宁波益宝,宁波鄞州益宝医疗美容诊所有限公司,497,196,301,195,4407145.00元,29.86806,121.61476
392,19211467,宁波市海曙区新典路108号1618室,宁波市,海曙区新典路108号1618室,宁波素颜,宁波海素颜医疗美容诊所有限公司,1,0,1,0,0.00元,29.85266,121.52991
393,19211469,成都市成都市金牛区沙湾东二路1号、5号世纪加州2栋2楼2、3、4、5、6号,成都市,成都市金牛区沙湾东二路1号、5号世纪加州2栋2楼2、3、4、5、6号,川复丽医,成都金牛复丽医疗美容门诊部有限公司,5,4,1,4,61000.00元,30.68966,104.05147
394,19211470,合肥市合肥市庐阳区中铁国际城广园17幢111门面,合肥市,合肥市庐阳区中铁国际城广园17幢111门面,皖美舒雅,合肥庐阳区美舒雅医疗美容诊所,53,13,40,13,245000.00元,31.903764,117.243776
395,19211471,广州市广州市天河区华强路1号4层（部位：自编402单元，自编403单元）,广州市,广州市天河区华强路1号4层（部位：自编402单元，自编403单元）,广州古汀,广州市古汀医疗美容门诊部有限公司,9,3,6,3,60000.00元,23.12574,113.3174
396,19211472,武汉市武汉市硚口区利济北路49号,武汉市,武汉市硚口区利济北路49号,鄂富康激,武汉市硚口区富康激光医疗美容门诊部,4,3,1,3,54000.00元,30.57131,114.27143
397,19211473,佛山市佛山市南海区桂城街道桂澜北路2号亿能国际广场2座226铺,佛山市,佛山市南海区桂城街道桂澜北路2号亿能国际广场2座226铺,佛颜植医,佛山颜植医疗美容门诊部有限公司,1,1,0,1,4228.00元,23.04787,113.15672
398,19211474,武汉市武汉市江汉区发展大道166号,武汉市,武汉市江汉区发展大道166号,鄂沃美医,武汉沃美医疗美容有限公司,12,6,6,6,90000.00元,30.61252,114.25104
399,19211475,上海上海市杨浦区国安路758弄23-25号,上海,上海市杨浦区国安路758弄23、25号,上海珞俪,上海珞俪医疗美容门诊部有限公司,4,1,3,1,16000.00元,31.316496,121.504692
400,19211476,上海上海市青浦区盈清路1号,上海,上海市青浦区盈清路1、3、5、7、9 1-2层,上海娜拉,上海娜拉医疗美容门诊部有限公司,164,127,37,123,2331960.00元,31.14083,121.09596
401,19211477,石家庄市河北省石家庄市裕华区东岗路28号,石家庄市,河北省石家庄市裕华区东岗路28号,雅芳亚,石家庄雅芳亚医疗美容医院,92,51,41,51,816176.00元,38.01518,114.5252
402,19211491,苏州市昆山市德尔美客医疗美容门诊部,苏州市,昆山开发区黄河中路99号.101号,德尔美客,昆山德尔美客医疗美容门诊部,1,1,0,1,15000.00元,31.374424,120.978752
403,19211492,上海西藏南路,上海,上海,沪丽园门,上海丽园门诊部有限公司,118,78,40,76,1842700.00元,31.19973,121.490738
404,19211493,重庆重庆市江北区西环路2号,重庆,重庆市,当代整形,重庆当代整形美容医院有限公司,1017,734,283,723,10765434.00元,29.57381,106.52898
405,19211494,宁波市宁波市鄞州区宁兴财富广场1号043幢,宁波市,宁波市鄞州区宁兴财富广场1号043幢,宁波极致,宁波鄞州极致医疗美容诊所,6,1,5,1,19000.00元,29.86702,121.609512
406,19211495,长沙市长沙市开福区五一大道926号,长沙市,长沙市开福区五一大道926号,湘三禾,长沙市开福区艺术三和医疗美容门诊部(普通合伙),27,8,19,8,124597.00元,28.19564,112.97351
407,19211496,成都市成都高新区天府一街689号1楼,成都市,成都高新区天府一街689号1楼,川微时代,成都高新微时代医疗美容门诊部有限公司,9,5,4,5,93200.00元,30.557691,104.050869
408,19211497,深圳市深圳市罗湖区桂园街道深南东路3018号祥祺商厦4楼东侧和5楼整层,深圳市,深圳市,深铭医,深圳铭医医疗美容医院,23,6,17,6,49760.00元,22.5437,114.12027
409,19211498,长沙市长沙市芙蓉区定王台街道芙蓉中路88号定王大厦8楼,长沙市,长沙市芙蓉区定王台街道芙蓉中路88号定王大厦8楼,湘安吉娜,湖南安吉娜医疗美容有限公司,99,58,41,58,1125720.00元,28.18898,112.98661
410,19211499,长沙市长沙市天心区五一大道717号204房,长沙市,长沙市天心区五一大道717号204房,湘希美,长沙市希美医疗美容有限公司,25,13,12,13,210464.00元,28.19504,112.97351
411,19211501,杭州市杭州市下城区凤起路149号2层201室,杭州市,杭州市下城区凤起路149号2层201室,杭依萱绮,杭州依萱绮医疗美容诊所有限公司,12,6,6,6,101879.00元,30.26423,120.17848
412,19211502,佛山市佛山市南海区桂城天佑三路11号美邦公寓201铺之一,佛山市,佛山市南海区桂城天佑三路11号美邦公寓201铺之一,佛时安平,佛山市南海时安平医疗美容诊所有限公司,20,13,7,13,140212.00元,23.03115,113.13995
413,19211503,石家庄市河北省石家庄市长安区广安街5号,石家庄市,河北省石家庄市长安区广安街5号,星源美天,石家庄星源美天医疗美容医院有限公司,38,14,24,14,215921.00元,38.043988,114.522874
414,19211504,石家庄市石家庄市裕华区建华南大街136号万达广场写字楼A座18层,石家庄市,石家庄市裕华区建华南大街136号万达广场写字楼A座18层,万瑞医疗,石家庄万瑞医疗美容门诊部有限公司,832,580,252,576,8204060.00元,38.02377,114.54511
415,19211505,石家庄市河北省石家庄市桥西区长青路61号D座4楼,石家庄市,河北省石家庄市桥西区长青路61号D座4楼,越然医疗,石家庄越然医疗美容门诊部,46,16,30,15,190547.00元,38.039475,114.453686
416,19211510,南京市南京市鼓楼区石头城117号103室,南京市,南京市鼓楼区石头城117号101，102，103室,南京美贝,南美贝尔美容医院有限公司,20,6,14,6,86400.00元,32.066078,118.748894
417,19211511,重庆重庆市渝中区时代天街11号1幢7-6,重庆,重庆市渝中区时代天街11号1幢7-6,重庆韦恩,重庆韦恩医疗美容有限公司,2,0,2,0,0.00元,29.533911,106.511703
418,19211512,金华市金东区金海岸人家3幢c29号，C30号,金华市,,金华静港,金华金东静港医疗美容诊所,5,0,5,0,0.00元,29.11087,119.679077
419,19211513,南京市南京市鼓楼区新模范马路46号-1,南京市,南京市鼓楼区新模范马路46号-1,宁连天美,南京连天美医院有限公司,145,85,60,84,1245651.00元,32.07763,118.77127
420,19211515,芜湖市安徽省芜湖市镜湖区北京路10号,芜湖市,安徽省芜湖市镜湖区北京路10号,芜珠儿丽,芜湖珠儿丽医疗美容门诊部有限公司,6,1,5,1,30000.00元,31.33285,118.36979
421,19211516,成都市成都市武侯区新南路8号,成都市,成都市武侯区新南路8号,成铜雀台,成都铜雀台整形美容医院有限公司,72,46,26,45,709375.00元,30.64301,104.07489
422,19211517,清远市广东省清远市先锋东路10-11号,清远市,广东省清远市先锋东路10-11号,清远华美,清远华美整形外科门诊部,3,1,2,1,10180.00元,23.710752,113.037862
423,19211518,苏州市周市镇新浦路679号,苏州市,周市镇新浦路679,百达丽,昆山百达丽医疗美容门诊部有限公司,26,15,11,15,127200.00元,31.456209,120.974762
424,19211519,惠州市惠州市江北东江二路2号富力丽港中心酒店B1层01号,惠州市,惠州市江北东江二路2号富力丽港中心酒店B1层01号,瑞芙臣,惠州市瑞芙臣医疗美容门诊部有限公司,54,4,50,4,43000.00元,23.10116,114.41008
425,19211520,深圳市深圳市罗湖区红岭中路1022号长虹九层综合楼,深圳市,深圳市罗湖区红岭中路1022号长虹九层综合楼,深圳希思,深圳希思医疗美容医院股份有限公司,53,7,46,7,192000.00元,22.54707,114.10486
426,19211521,武汉市武昌区武汉中央文化区k1地块一期一区,武汉市,武昌区武汉中央文化区k1地块一期一区K1-S4幢1-3层2到4号房,鄂真美啦,武汉真美啦医疗美容门诊有限公司,182,125,57,124,2037155.00元,30.553221,114.347008
427,19211522,武汉市武汉市江汉区唐家墩路7、9、11号武汉菱角湖万达广场A栋A2单元16层15-18室,武汉市,武汉市江汉区唐家墩路7、9、11号武汉菱角湖万达广场A栋A2单元16层15-18室,鄂上城医,武汉上城医疗美容有限公司,5,0,5,0,0.00元,30.61014,114.26961
428,19211524,成都市锦江区琉璃路678号1单元1楼2号,成都市,锦江区琉璃路678号1单元1楼2号,川瑞亚医,成都锦江瑞亚医疗美容诊所有限公司,374,186,188,179,4265160.00元,30.61203,104.09429
429,19211525,长沙市长沙市岳麓区梅溪湖街道梅溪四季家园商业部分第256房,长沙市,长沙市岳麓区梅溪湖街道梅溪四季家园商业部分第256房,湘丽臻,湖南丽臻医疗美容有限公司,649,349,300,342,7248170.00元,28.192768,112.916985
430,19211527,广州市广州市海珠区新港东路618号，620号，会展南一路1号，3号401房,广州市,,广州禾丽,广州市禾丽医学美容门诊部有限公司,1702,1126,576,1116,24551972.00元,23.09858,113.35558
431,19211528,成都市成都市武侯区高攀路2号魏玛国际5栋8-25、26、27号,成都市,成都市武侯区高攀路2号,川玉颜医,武侯区玉颜医疗美容诊所,39,19,20,19,200858.00元,30.60775,104.081
432,19211529,南京市南京市玄武区珠江路88号2幢4401室,南京市,南京市玄武区珠江路88号2幢4401室,南京贝缇,南京市玄武区贝缇医疗美容诊所,55,26,29,26,545400.00元,32.04959,118.78884
433,19211530,苏州市杨舍镇王府广场东首,苏州市,杨舍镇步行街王府广场东首,吴宝红,张家港市吴宝红医疗美容有限公司,26,22,4,22,216250.00元,31.862591,120.542503
434,19211531,武汉市武汉市江汉区发展大道299号,武汉市,武汉市江汉区发展大道299号,鄂米兰,米兰（武汉）医疗美容门诊部有限公司,91,33,58,32,597220.00元,30.61945,114.2737
435,19211532,"温州市汤家桥路大自然家园N5,N6幢农贸市场二层1号西首",温州市,,温州上雅,温州上雅医学美容门诊部有限公司,24,7,17,7,100700.00元,27.990669,120.712311
436,19211533,宁波市象山县丹西街道天安路180号,宁波市,象山县丹西街道天安路180号,象山华美,象山华美医疗美容,15,10,5,10,121044.00元,29.46796,121.87835
437,19211534,上海上海市浦东新区世纪大道88号金茂大厦裙房1NO1A,上海,,上海银城,上海银城医疗美容门诊部有限公司,2,0,2,0,0.00元,31.23526,121.50593
438,19211536,保定市保定市七一路都市华庭小区底商8号1-2层、5-13号3层,保定市,河北省保定市竞秀区七一路都市华庭小区底商8号1-2层,保定华美,保定华美整形美容医院有限公司,43,14,29,14,125124.00元,38.881699,115.480309
439,19211537,成都市成都市武侯区火车南站西路15号1栋10层1-2号,成都市,成都市武侯区火车南站西路15号1栋10层1-2号,川仪美医,成都武侯仪美医疗美容门诊部有限公司,49,14,35,12,255000.00元,30.60714,104.06253
440,19211538,石家庄市河北省石家庄市裕华区建华南大街190号世纪文化城,石家庄市,河北省石家庄市裕华区建华南大街190号世纪文化城,贵美人,石家庄贵美人医疗美容医院有限公司,175,107,68,107,1306939.00元,38.01639,114.54659
441,19211539,珠海市珠海市香洲区吉大水湾路279号海怡大厦一层-04商铺,珠海市,珠海市香洲区吉大水湾路279号海怡大厦一层-04商铺,艾贝尔,珠海市吉大艾贝尔医疗美容门诊部,31,11,20,11,252608.00元,22.23613,113.5714
442,19211541,长沙市湖南省长沙市芙蓉区五一西路2号第一大道11楼1112室,长沙市,湖南省长沙市芙蓉区五一西路2号第一大道11楼1112室,湘荪臻臻,长沙市芙蓉区荪臻臻医疗投资管理有限公司五一西路门诊部,15,10,5,9,196760.00元,28.19564,112.984
443,19211542,保定市保定市竞秀区阳光北大街858号,保定市,保定市竞秀区阳光北大街858号,保定珍润,保定珍润医疗美容门诊部,68,41,27,41,747136.00元,38.88899,115.4809
444,19211543,武汉市武汉市江岸区黎黄陂路2号第4栋,武汉市,武汉市江岸区黎黄陂路2号第4栋,鄂莱恩医,武汉市江岸区莱恩医疗美容门诊部,15,8,7,8,130760.00元,30.5865,114.30202
445,19211544,武汉市武汉市江汉区新华西路武汉菱角湖万达广场A区第A幢1-2层053号,武汉市,武汉市江汉区新华西路武汉菱角湖万达广场A区第A幢1-2层053号,鄂悦慕医,武汉江汉悦慕医疗美容门诊部,2,1,1,1,10000.00元,30.609446,114.26812
446,19211545,重庆重庆市,重庆,重庆市渝中区八一路108号11-1,美圣美邦,重庆美圣美邦医疗美容门诊部有限责任公司,30,19,11,18,195595.00元,29.40268,106.54041
447,19211546,石家庄市石家庄市桥西区平安南大街198-5号,石家庄市,石家庄市桥西区平安南大街198-5号,黛芙医疗,石家庄黛芙医疗美容诊所,73,40,33,39,673568.00元,38.01606,114.502274
448,19211547,南京市南京市建邺区江东中路237号雨润国际广场四层B区-3号,南京市,南京市建邺区江东中路237号雨润国际广场四层B区-3号,米尚恩,南京米尚恩个人形象设计有限公司建业医疗美容诊所,39,10,29,10,150900.00元,32.00745,118.73187
449,19211548,南京市南京市建邺区福园街129号17楼1708室,南京市,南京市建邺区福园街129号17楼1708室,南京和美,南京市建邺区和美医疗美容诊所,2,1,1,1,20000.00元,32.03132,118.73752
450,19211549,武汉市武汉市江岸区花桥三期天梨阁北苑1层2号,武汉市,武汉市江岸区花桥三期天梨阁北苑1层2号,鄂珍妮医,武汉珍妮医疗美容门诊部有限公司,76,32,44,32,610380.00元,30.621929,114.293587
451,19211550,武汉市武汉市江岸区江大路20号,武汉市,武汉市江岸区江大路20号,鄂美谛医,武汉市星美谛医疗美容门诊部有限公司,34,18,16,18,296940.00元,30.6186,114.29394
452,19211551,厦门市厦门市思明区湖滨南路8号之二综合楼2-4层,厦门市,厦门市思明区厦禾路338号,新开元,厦门新开元医院,33,5,28,5,114500.00元,24.47089,118.10234
453,19211552,珠海市珠海市香洲区吉大景山路138号,珠海市,珠海市香洲区吉大景山路138号,珠海美涵,珠海美涵门诊部有限公司,44,30,14,30,637310.00元,22.2479,113.57592
454,19211553,厦门市厦门市思明区曾厝垵名仕俱乐部72号,厦门市,厦门市思明区曾厝垵名仕俱乐部72号,厦门海峡,厦门思明海峡医疗美容门诊部,223,94,129,94,1378680.00元,24.430571,118.124817
455,19211554,杭州市浙江省杭州市萧山区新塘街道董家埭社区人民路857号,杭州市,,杭州琦雅,杭州琦雅医疗投资管理有限公司萧山新塘医疗美容门诊部,56,7,49,7,139700.00元,30.16048,120.29128
456,19211555,重庆重庆市,重庆,重庆市,渝天艺美,重庆天艺美医疗美容门诊部,45,25,20,25,478620.00元,29.40268,106.54041
457,19211556,广州市广州市越秀区广园西路121号安华美博城附楼一至三层,广州市,广州市越秀区广园西路121号安华美博城附楼一至三层,广州健肤,广州健肤门诊部有限公司,129,78,51,78,658716.00元,23.15562,113.25199
458,19211557,保定市保定市东风中路1759号,保定市,河北省保定市东风中路1759号,保定京都,保定京都皮肤病医院,37,6,31,6,90171.00元,38.87406,115.47351
459,19211558,合肥市安徽省合肥市包河区马鞍山路世纪阳光大厦101室,合肥市,安徽省合肥市包河区马鞍山路世纪阳光大厦101室,合壹加壹,合肥壹加壹整形美容医院有限公司,360,193,167,191,2278200.00元,31.839291,117.300392
460,19211559,武汉市武汉市东湖新技术开发区高新二路388号光谷国际生物医药企业加速器一期1号楼2单元324号,武汉市,武汉市东湖新技术开发区高新二路388号光谷国际生物医药企业加速器一期1号楼2单元324号,鄂御美媛,武汉美嘉御美媛医疗美容有限公司,9,4,5,4,64600.00元,30.47847,114.54054
461,19211560,上海上海市徐汇区襄阳南路218号2层,上海,,铭悦, 上海铭悦医疗美容门诊部有限公司,428,246,182,241,7095100.00元,31.21216,121.45724
462,19211561,广州市广州市天河区天府路161号,广州市,广州市天河区天府路161号,广州秀妍,广州秀妍医疗美容门诊部有限公司,306,174,132,171,3892950.00元,23.13125,113.36191
463,19211562,成都市成都市武侯区少陵路459号1栋2楼1号,成都市,成都市武侯区少陵路459号1栋2楼1号,川天使之,成都武侯天使之翼美天整形美容医院有限公司,28,14,14,13,207968.00元,30.64773,104.02303
464,19211563,成都市成都市武侯区一环路一段88号4楼401,成都市,成都市武侯区一环路一段88号4楼401,美瑞皮肤,成都美瑞皮肤医疗美容门诊部有限公司,3,1,2,1,3600.00元,30.640499,104.089523
465,19211564,广州市广州市越秀区广州大道中307号C栋601房,广州市,广州市越秀区广州大道中307号（C栋）601房,广州OT,方明武医疗美容诊所,353,221,132,219,5348815.00元,23.12668,113.31479
466,19211565,广州市广州市天河区沙河濂泉路42号,广州市,,广州现代,广州现代医院有限责任公司,7,5,2,5,74960.00元,23.15755,113.30799
467,19211566,长沙市长沙市开福区新河街道芙蓉中路一段416号泊富商业广场3002房,长沙市,长沙市开福区新河街道芙蓉中路一段416号泊富商业广场3002房,湘微恩,长沙微恩医疗美容有限公司,435,222,213,217,4675700.00元,28.208918,112.985276
468,19211567,苏州市张家港市杨舍镇东环路78号,苏州市,江苏苏州,唯恩医疗,张家港唯恩医疗美容医院有限公司,74,30,44,30,431825.00元,31.85899,120.55133
469,19211568,湘潭市湘潭市岳塘区河东大道46号天瑞新城,湘潭市,湘潭市岳塘区河东大道46号天瑞新城,湘潭华雅,湘潭市岳塘区华雅医疗美容门诊部,22,13,9,12,170571.00元,27.83652,112.92952
470,19211569,无锡市无锡市南长区永丰路黄泥泽57-1,无锡市,无锡市南长区永丰路黄泥泽57-1,同济医疗,无锡同济医疗美容医院,66,37,29,36,536443.00元,31.562599,120.308601
471,19211570,长沙市长沙市天心区芙蓉南路一段529号永熙大厦3楼,长沙市,,湘真爱,长沙市天心区真爱医疗美容门诊部,29,9,20,9,213400.00元,28.1259,112.98745
472,19211571,湘潭市湖南省湘潭市岳塘区建设路口国际金融大厦（湘潭华天大酒店有限公司内）,湘潭市,湖南省湘潭市岳塘区建设路口国际金融大厦（湘潭华天大酒店有限公司内）,湘潭华美,湘潭华美医疗美容有限公司,25,8,17,8,82160.00元,27.83437,112.919182
473,19211572,湘潭市湘潭市迎宾中路115号,湘潭市,湘潭市迎宾中路115号,湘潭仁和,湘潭市红十字仁和医院,36,26,10,26,274580.00元,27.85556,112.88825
474,19211573,湘潭市湘潭市雨湖区车站路35号2栋0301001号,湘潭市,湘潭市雨湖区车站路35号2栋0301001号,湘潭美颜,湘潭美颜美容服务有限公司,43,30,13,30,265421.00元,27.86355,112.91015
475,19211574,无锡市无锡市广瑞路1号,无锡市,广瑞路1号,施尔美医,无锡施尔美医疗美容医院有限公司,111,52,59,52,654999.00元,31.58299,120.31609
476,19211575,成都市成都市武侯区大石西路239号1栋2单元2楼1.2号,成都市,成都市武侯区大石西路239号1栋2单元2楼1.2号,川颜美汇,成都武侯颜美汇医学美容诊所有限公司,103,50,53,50,847800.00元,30.65129,104.02394
477,19211576,中山市中山市石岐区湖滨中路64号,中山市,中山市石岐区湖滨中路64号,粤美南华,中山美南华美容医院有限公司,124,38,86,37,546850.00元,22.533421,113.385811
478,19211577,广州市广州市天河区天河路683号4楼,广州市,广州市天河区天河路683号4楼,广州国姿,广州国姿缔美医院管理有限公司,16,3,13,3,73800.00元,23.13599,113.342
479,19211578,衢州市衢州市盈川东路196号2层,衢州市,衢州市盈川东路196号2层,桂美人,衢州市柯城区桂美人医疗美容门诊部（普通合伙）,180,61,119,60,1192769.00元,28.98495,118.85427
480,19211579,衢州市衢州市狮桥街1幢5层,衢州市,衢州市狮桥街1幢5层,赫尔希,衢州市赫尔希商贸有限公司柯城医疗美容诊所,7,5,2,5,125000.00元,28.95412,118.87394
481,19211580,武汉市武汉市江汉区万松园横路43号,武汉市,武汉市江汉区万松园横路43号,鄂西婵医,武汉西婵医疗美容门诊部有限公司,80,40,40,40,629564.00元,30.58912,114.26552
482,19211581,杭州市临安市临天路十弄411号,杭州市,临安市临天路十弄411号,芘丽芙,临安芘丽芙医疗美容医院有限公司,111,44,67,44,829470.00元,30.23484,119.71493
483,19211582,青岛市青岛市崂山区香港中路160号,青岛市,青岛市崂山区香港中路160号,鲁海伦美,青岛海伦美容医院有限公司,47,23,24,22,375700.00元,36.10811,120.46803
484,19211583,唐山市唐山市龙泽南路七号,唐山市,唐山市龙泽南路七号,唐山煤医,唐山煤医整形美容医院,33,18,15,17,177040.00元,39.627,118.20462
486,19211585,珠海市珠海市拱北情侣南路288号二层207号（龙园海湾雅苑）,珠海市,珠海市拱北区情侣南路288号二层207号,珠海艾瑞,珠海美林艾瑞医疗美容门诊部,109,57,52,56,1066805.00元,22.2281,113.56415
487,19211586,天津天津市南开区红旗路与保泽道交口融创中心实泽园13-1-402,天津,天津市南开区红旗路与保泽道交口融创中心实泽园13-1-402,津伊颜美,天津伊颜美医疗美容门诊有限公司,61,41,20,40,776030.00元,39.10929,117.14937
488,19211587,杭州市杭州市下城区环城西路2号3幢2楼,杭州市,杭州市下城区环城西路2号3幢2楼,杭赫蘭氏,杭州赫蘭氏医疗美容医院有限公司,40,10,30,10,233800.00元,30.25932,120.15864
489,19211588,天津天津市南开区宾水西道与凌宾路交口西南侧奥城商业广场10-419-423,天津,天津市南开区宾水西道与凌宾路交口西南侧奥城商业广场10-419-423,jmty,天津市格美天颜医疗美容门诊有限公司,6,5,1,5,121000.00元,39.078514,117.169647
490,19211589,广州市广州市天河区花城大道55号之一102房,广州市,州市天河区花城大道55号之一102房,广州新颜,广州新颜医疗美容门诊有限公司,77,43,34,42,1261250.00元,23.11905,113.3303
491,19211590,成都市成都市武侯区二环路南四段51号1栋5层8号,成都市,成都市武侯区二环路南四段51号1栋5层8号,川赫拉医,成都武侯赫拉医疗美容诊所有限公司,16,10,6,9,159490.00元,30.631473,104.033511
492,19211591,武汉市武汉硚口区中山大道131号,武汉市,武汉硚口区中山大道131号,鄂叶子医,武汉市硚口区叶子医疗美容医院,1,0,1,0,0.00元,30.5694,114.26393
493,19211593,珠海市珠海市吉大景山路99号金升大厦附近,珠海市,珠海市吉大景山路99号金升大厦附楼,珠海莱茵,珠海莱茵门诊部有限公司,49,24,25,24,321574.00元,22.25049,113.575348
494,19211594,台州市黄岩区东城街道东官河路1号,台州市,浙江省台州市黄岩区东城街道东官河路1号,浙美嘉美,台州市黄岩美嘉美整形美容有限公司,45,26,19,25,493800.00元,28.65118,121.27456
495,19211595,台州市台州市路桥区月河北街5号,台州市,台州市路桥区月河北街5号,浙广济,台州路桥广济医院,32,15,17,15,249440.00元,28.58089,121.38469
496,19211596,杭州市秋涛北路451号2幢,杭州市,,杭州瑞晶,杭州瑞晶健康管理咨询有限公司秋涛北路医疗美容诊所,74,29,45,29,515260.00元,30.28968,120.19764
497,19211597,温州市瑞安市安阳路7-11号,温州市,瑞安市安阳路7-11号,温州瑞丽,温州瑞丽医疗美容,29,13,16,13,193356.00元,27.78178,120.65826
498,19211598,宜昌市宜昌市西陵区云集路45-2号,宜昌市,西陵区云集路45-2号,宜昌亚太,宜昌亚太整形美容医院有限公司,52,30,22,29,387099.00元,30.694154,111.284805
499,19211599,广州市广州市天河区马场路28号,广州市,广州市天河区马场路28号,广州韩致,广州韩致医疗美容门诊部有限公司,165,48,117,48,1103180.00元,23.12283,113.34407
500,19211600,东莞市东莞市东城街道东宝路124号3号宿舍楼一层,东莞市,东莞市东城街道东宝路124号3号宿舍楼一层,粤东依谋,东莞东城依谋医疗美容门诊部有限公司,572,310,262,302,5100520.00元,23.04299,113.783356
501,19211601,宜昌市宜昌西陵一路新世纪广场C座,宜昌市,宜昌市西陵区西陵一路22号,宜昌蕾帝,宜昌蕾帝整形美容医院有限公司,134,108,26,108,1415637.00元,30.70214,111.28416
502,19211602,青岛市青岛市崂山区香港东路凯旋山庄35号楼,青岛市,青岛市崂山区香港东路凯旋山庄35号楼,鲁诺德美,青岛诺德医学美容医院有限公司,423,263,160,258,3470313.00元,36.076683,120.442741
503,19211603,杭州市浙江省杭州市西湖区世贸丽晶城欧美中心2号楼201室,杭州市,浙江省杭州市西湖区世贸丽晶城欧美中心2号楼201室,zsqc,杭州塑青美容有限公司,106,80,26,77,708028.00元,30.273081,120.137199
504,19211604,嘉兴市浙江省嘉兴市南湖区耀城广城11/12幢12-301室-B,嘉兴市,浙江省嘉兴市南湖区耀城广场11、12幢12-301室-B,嘉兴龙伊,嘉兴市龙伊医疗美容门诊部有限公司,82,34,48,33,661642.00元,30.758659,120.729729
505,19211605,杭州市浙江省杭州市滨江长河街道春江郦城商铺85号,杭州市,浙江省杭州市滨江长河街道春江郦城商铺85号,zsqc,杭州塑青美容有限公司春江郦城店,10,5,5,5,40992.00元,30.198339,120.204849
506,19211606,杭州市浙江省杭州市拱墅区万达商业中心1幢162室,杭州市,浙江省杭州市拱墅区万达商业中心1幢162室,zsqc, 杭州塑青美容有限公司拱墅万达店,8,5,3,5,58718.00元,30.330223,120.119598
507,19211607,杭州市浙江省杭州经济技术开发区和达城1幢222室,杭州市,浙江省杭州经济技术开发区和达城1幢222室,zsqc,杭州塑青美容有限公司下沙和达城店,3,0,3,0,0.00元,30.309084,120.347664
508,19211608,杭州市浙江省杭州市拱墅区萍水街470号、472号,杭州市,浙江省杭州市拱墅区萍水街470号、472号,zsqc,杭州塑青美容有限公司城西银泰店,3,1,2,1,5000.00元,30.300395,120.107245
509,19211609,天津天津市河东区津滨大道51增5，6号,天津,天津市河东区津滨大道51增5，6号,津菲丝澜,天津河东菲丝澜医学美容门诊部有限公司,52,24,28,23,511858.00元,39.11776,117.271317
510,19211610,合肥市合肥市瑶海区临泉路北中环国际广场S108、S208,合肥市,合肥市瑶海区临泉路北中环国际广场S108、S208,皖童颜堂,合肥童颜堂医院有限公司,20,5,15,5,91880.00元,31.880791,117.312073
511,19211611,深圳市深圳市龙华新区龙华街道东环一路景乐南区55栋1-3楼,深圳市,深圳市龙华新区龙华街道东环一路景乐南区55栋1-3楼,深圳伊婉,深圳伊婉门诊部有限公司,12,1,11,1,20000.00元,22.658325,114.022652
512,19211612,湖州市湖州市奥园壹号70幢301室,湖州市,湖州市奥园壹号70幢301室,湖州心悦,湖州心悦医疗美容门诊部有限公司,88,40,48,39,942300.00元,30.913361,120.098289
513,19211613,台州市天台县赤城街道工人西路135号,台州市,天台县赤城街道工人西路135号,台州华美,天台华美医疗美容诊所,60,25,35,25,383699.00元,29.14403,121.02522
514,19211614,台州市台州市路桥区路北街道双水路589-697号,台州市,台州市路桥区路北街道双水路589-697号,台州李坤,台州市路桥李坤医疗美容诊所,105,54,51,53,945740.00元,28.594761,121.356956
515,19211615,台州市浙江省台州市温岭市城东街道九龙大道116号,台州市,浙江省台州市温岭市城东街道九龙大道116号,台州澜雅,温岭城东澜雅医疗美容门诊部,45,15,30,15,297611.00元,28.40277,121.38302
516,19211616,武汉市和平大道750号绿地金融城,武汉市,和平大道750号绿地金融城,明亮医疗,武昌陈明亮医疗美容诊所,4,1,3,1,12000.00元,30.57513,114.31953
517,19211617,台州市温岭市城东街道万昌中路1333号创业大厦1幢1401室,台州市,温岭市城东街道万昌中路1333号创业大厦1幢1401室,台州柏蓝,温岭城东柏蓝医疗美容门诊部,18,13,5,13,510000.00元,28.40732,121.37967
518,19211618,温州市温州经济开发区机场大道5477号国大广场603室,温州市,温州经济开发区机场大道国大广场603,温州玉熙,温州玉熙医疗美容门诊有限公司,41,12,29,12,189000.00元,27.99297,120.71446
519,19211619,台州市台州市开发大道1500号东泰万花汇4号楼1层209/210/211号2层101-118号,台州市,台州市开发大道1500号东泰万华汇4号楼1层209、210、211号2层101-118号,台州媚焕,台州市媚焕医疗美容有限公司,24,8,16,8,236800.00元,28.63855,121.40625
520,19211620,台州市浙江省台州市路桥区螺洋街道银安西街392号,台州市,浙江省台州市路桥区螺洋街道银安西街392号,台州瑞美,台州市瑞美医疗美容有限公司,101,76,25,76,1556980.00元,28.56434,121.33118
521,19211621,珠海市珠海市吉大九洲大道中1004号,珠海市,珠海市吉大九洲大道中1004号,珠海九龙,珠海九龙医院有限公司,164,103,61,101,1539348.00元,22.24658,113.57369
522,19211622,温州市温州市鹿城区锦绣路616号,温州市,温州市鹿城区锦绣路616号,温州星范,温州星范医疗美容门诊部有限公司,26,16,10,16,259740.00元,27.99945,120.6683
523,19211623,温州市温州市莲花路莲花大厦1幢2层,温州市,浙江省温州市莲花路莲花大厦2幢二层A2,温丝芙兰,温州美域高医疗美容门诊部,123,79,44,76,1495660.00元,28.0049,120.66373
524,19211624,青岛市青岛市崂山区秦岭路18号（国展，财富中心）三号楼3-303,青岛市,青岛市崂山区秦岭路18号（国展，财富中心）三号楼3-303,鲁瑞美医,青岛瑞美健康管理有限公司医学美容诊所,8,2,6,2,23800.00元,36.103021,120.468878
525,19211625,重庆重庆市江北朗晴广场2楼,重庆,重庆市江北区西环路8号附12号3-3,重庆叶子,重庆叶子整形门诊部,25,8,17,8,146600.00元,29.571955,106.529411
526,19211626,台州市台州市路桥区路桥街道南南官大道23号,台州市,台州市路桥区路桥街道南南官大道23号,台州欧亚,台州市路桥欧亚美容整形门诊部,155,96,59,96,1652280.00元,28.58324,121.37181
527,19211627,台州市浙江省台州市东海大道775号,台州市,浙江省台州市东海大道775号,纳恩妮亚,台州市纳恩妮亚医疗整形美容有限公司,40,17,23,17,319700.00元,28.64702,121.41932
528,19211628,天津天津市河东区六纬路1692号万达公馆底商,天津,天津市河东区六纬路1692号万达公馆底商,天津伊颂,天津河东伊颂医学美容门诊部,107,67,40,67,1077622.00元,39.10614,117.23869
529,19211629,台州市台州市市府大道39号,台州市,台州市市府大道39号,爱美美莱,台州市爱美美莱医疗美容门诊部有限公司,534,381,153,379,8227594.00元,28.6503,121.44499
530,19211630,台州市台州市椒江区机场北路218号,台州市,台州市椒江区机场北路218号,台州长青,台州市椒江长青门诊部（普通合伙人）,36,15,21,15,185648.00元,28.65256,121.44354
531,19211632,江门市江门市蓬江区白石大道218号,江门市,江门市蓬江区白石大道218号,江门华美,江门侨都华美美容医院,78,36,42,36,430398.00元,22.61132,113.07783
532,19211633,珠海市珠海市吉大九洲大道1118号一楼102-107室、二楼～七楼,珠海市,珠海市吉大九洲大道1118号一楼102-107室、二楼～七楼,珠海阳光,珠海阳光医院有限公司,3,0,3,0,0.00元,22.24939,113.585091
533,19211634,杭州市杭州市江干区钱江国际时代广场3幢1403，1404室,杭州市,杭州市江干区钱江国际时代广场3幢1403，1404室,杭州赫本,杭州赫本医疗美容诊所有限公司,21,11,10,11,225600.00元,30.24037,120.20517
534,19211635,广州市广州市越秀区环市东路360号二楼,广州市,广州市越秀区环市东路360号二楼,广州紫馨,广州紫馨医疗美容门诊部有限公司,29,2,27,2,27500.00元,23.13684,113.28454
535,19211636,天津天津市河东区新开路与华昌大街交口南侧联盛大厦1-103,天津,天津市河东区新开路与华昌大街交口南侧联盛大厦1-103,津圣韩美,天津市河东区圣韩美医学美容门诊部,61,29,32,29,658670.00元,39.135792,117.22097
536,19211637,天津天津市南开区东马路66号,天津,天津市南开区东马路66号,津华美,天津市华美医疗美容门诊部,31,21,10,21,439400.00元,39.14315,117.18999
537,19211638,唐山市河北省唐山市路北区裕华道223号,唐山市,河北省唐山市路北区裕华道223号,唐山纤嫣,唐山市路北区裕华道纤嫣医疗美容诊所,32,18,14,18,284360.00元,39.66062,118.16602
538,19211639,天津天津市河西区解放南路与湘江道交口铂津湾南苑3-1-105,天津,天津市河西区,天津倍丽,天津河西区倍丽医疗美容诊所,1,1,0,1,20000.00元,39.09881,117.23174
539,19211640,中山市广东省中山市中山四路12号,中山市,广东省中山市中山四路12号,中山百佳,中山百佳妇产医院有限公司,37,6,31,6,74620.00元,22.51595,113.3926
540,19211641,广州市广州市海珠区逸景路308号201，202铺,广州市,,广州臻钰,广州海珠区臻钰医疗美容诊所,1,0,1,0,0.00元,23.08241,113.30834
541,19211642,金华市婺城区双溪路298号,金华市,浙江省金华市婺城区双溪路298号,金芘丽芙,金华芘丽芙美容医院股份有限公司,41,8,33,8,114889.00元,29.08624,119.5715
542,19211643,汕头市汕头市龙湖区长平路146号103及嵩山路23号2幢203,汕头市,汕头市龙湖区长平路146号103及嵩山路23号2幢203,苏国艺,汕头市龙湖区苏国艺医疗美容诊所,420,261,159,253,5457056.00元,23.36145,116.73835
543,19211645,韶关市韶关市武江区惠民南路1号向阳楼,韶关市,韶关市武江区惠民南路1号向阳楼,韶关艾瑞,韶关艾瑞美容医院（普通合伙）,40,23,17,23,429498.00元,24.79996,113.59064
544,19211646,湛江市湛江经济开发区人民大道中74号之二层、三层、四层、六层,湛江市,湛江经济开发区人民大道中74号之二层、三层、四层、六层,华美整形,湛江华美整形美容医院有限公司,108,46,62,46,594129.00元,21.23945,110.38907
545,19211647,衢州市衢州市衢化路183号1-3层,衢州市,衢州市衢化路183号1-3层,芘丽芙,衢州芘丽芙医疗美容门诊部有限责任公司,145,59,86,58,818414.00元,28.93503,118.88622
546,19211648,潮州市潮州大道福安路锦江花园f幢首层,潮州市,潮州大道福安路锦江花园f幢首层8号铺,潮博兰雅,潮州市开发区博兰雅医疗美容诊所,74,45,29,45,783700.00元,23.651939,116.623337
547,19211649,深圳市深圳市罗湖区黄贝街道新秀路新秀村瑞思大厦1503、1505,深圳市,深圳市罗湖区黄贝街道新秀路新秀村瑞思大厦1503、1505,深圳雅涵,深圳雅涵医疗美容门诊部,23,6,17,6,105600.00元,22.54805,114.142387
548,19211650,贵阳市贵州省贵阳市南明区四方河路39号宜家尚城6号1层,贵阳市,贵州省贵阳市南明区四方河路39号宜家尚城6号1层,贵南智美,贵阳市南明区智美美容整形外科诊所,347,204,143,200,4467066.00元,26.53077,106.68971
549,19211651,重庆渝北区龙溪镇红石路446号,重庆,重庆市渝北区龙溪镇红石路i446号,重庆仁爱,重庆仁爱医院,26,20,6,20,324100.00元,29.576014,106.49928
550,19211652,中山市广东省中山市东区博爱六路28号远洋广场5幢1区120、121卡,中山市,中山市东区博爱六路28号远洋广场5幢1区120、121卡,粤李佳辉,中山市李佳辉医疗美容诊所,3,1,2,1,30000.00元,22.50374,113.418404
551,19211653,重庆重庆市江北区永平街14号,重庆,重庆市江北区,重庆原辰,重庆原辰医疗美容医院有限责任公司,263,166,97,163,3217121.00元,29.57526,106.568443
552,19211654,东莞市东莞市南城区新基莞太路广彩城路,东莞市,东莞市南城区新基莞太路广彩城路,粤玛丽亚,东莞市百佳玛丽亚妇产医院有限公司,10,1,9,1,6000.00元,23.005289,113.729156
553,19211656,芜湖市芜湖市镜湖区镜湖路1号一楼,芜湖市,芜湖市镜湖区镜湖路1号一楼,芜湖瑞丽,芜湖瑞丽医疗美容门诊部有限公司,4,1,3,1,10000.00元,31.32717,118.37059
554,19211657,天津南开区长江道115号,天津,天津市南开区长江道115号,津欧菲,天津南开欧菲整形美容医院（普通合伙）,29,12,17,12,216313.00元,39.12569,117.16573
555,19211658,长沙市湖南省长沙市芙蓉区定王台街道织机街47号明景公寓505房,长沙市,湖南省长沙市芙蓉区定王台街道织机街47号明景公寓505房,湘凯莱,长沙凯莱医疗美容有限公司,16,7,9,7,170000.00元,28.18731,112.97985
556,19211659,成都市成都市锦江区署袜北二街65号,成都市,成都市锦江区署袜北二街65号,jyyy,成都锦一医院,89,64,25,64,930295.00元,30.66028,104.07654
557,19211660,深圳市深圳市龙华区龙华街道景龙社区东环一路487号4、5、6楼,深圳市,深圳市龙华区龙华街道景龙社区东环一路487号4、5、6楼,深瑞芙臣,深圳瑞芙臣医疗美容门诊部,90,28,62,28,422852.00元,22.6551,114.02751
558,19211661,深圳市深圳市福田区福田街道福星路12号物资楼东座2楼201房、3楼301房、4楼401房、6楼601房、7楼701房、8楼801房,深圳市,深圳市福田区福田街道福星路12号物资楼东座2楼201房、3楼301房、4楼401房、6楼601房、7楼701房、8楼801房,深圳军科,深圳市军科门诊部有限责任公司,22,0,22,0,0.00元,22.52987,114.07979
559,19211662,温州市鹿城区黎明西路海发大楼,温州市,浙江省温州市鹿城区黎明西路海发大楼309-312室、314室、315-319室,温芘丽芙,温州芘丽芙美容医院有限公司,36,8,28,8,127600.00元,28.0105,120.680969
560,19211663,金华市环城北路100号,金华市,浙江省金华市环城北路100号,金华时光,金华时光医疗美容门诊部,69,25,44,25,373570.00元,29.12093,119.67554
561,19211665,长沙市长沙市雨花区芙蓉中路二段395号都市阳光1楼104号,长沙市,长沙市雨花区芙蓉中路二段395号都市阳光1楼104号,湘牙大夫,长沙牙大夫医疗投资管理有限公司口腔门诊部,2,1,1,1,10000.00元,28.172963,112.985709
562,19211666,广州市广州市天河区体育东路118号602房,广州市,,粤彤雅斯,广州彤雅斯投资有限公司,183,120,63,117,2536839.00元,23.13632,113.32868
563,19211667,湛江市湛江市霞山区国贸大厦A座6楼,湛江市,湛江霞山区国贸A座6楼,湛江澳泰,湛江澳泰整形医院,12,5,7,5,31136.00元,21.19606,110.40567
564,19211668,珠海市珠海市吉大景山路39号105-106,珠海市,珠海市吉大景山路39号105-106,珠海何奎,珠海市吉莲何奎医疗美容诊所,37,13,24,13,197020.00元,22.2479,113.57592
565,19211669,广州市广州市天河区燕岭路13号一二楼,广州市,广州市天河区燕岭路13号一二楼,广美整形,广州广美整形美容医疗门诊部有限公司,86,51,35,51,703759.00元,23.15842,113.32554
566,19211670,无锡市宜兴市宜城街道红塔路188号,无锡市,宜兴市宜城街道红塔路188号,红塔医院,宜兴中西医结合医院（宜兴市红塔医院）,28,19,9,19,250444.00元,31.386963,119.808449
567,19211671,无锡市无锡市崇安区北仓门37号13-1,无锡市,无锡市崇安区北仓门37号13-1,艾菲斯,无锡艾菲斯医疗美容门诊有限公司,34,13,21,13,218600.00元,31.550409,120.308693
568,19211673,保定市河北省保定市莲池区永华南大街与西大街交叉口390号,保定市,河北省保定市莲池区永华南大街与西大街交叉口390号,保叶美思,保定叶美思医疗美容诊所,15,10,5,10,194500.00元,38.86162,115.49599
569,19211675,中山市中山市东区怡华街4-8号2层2卡,中山市,中山市东区怡华街4-8号2层2卡,中山美尔,中山市美尔医疗美容门诊有限公司,37,12,25,12,261900.00元,22.515869,113.398743
570,19211676,台州市浙江省台州市纬三路2-8号一层,台州市,浙江省台州市纬三路2-8号一层,台州美惠,台州市博雅美惠医疗美容整形门诊部有限公司,263,177,86,176,2863240.00元,28.64244,121.42831
571,19211678,宁波市浙江省金华市金东区李渔路以北、东市街以东金华万达广场12幢03号,宁波市,浙江省金华市金东区李渔路以北、东市街以东金华万达广场12幢03号,金华丽都,金华金东丽都整形外科门诊部（普通合伙人）,40,24,16,24,350284.00元,29.090435,119.676956
572,19211679,重庆重庆江北区建新南路18号附17号,重庆,重庆市江北区建新南路18号附17号,诚嘉口腔,重庆牙博士诚嘉口腔医院有限公司,54,40,14,38,504440.00元,29.57286,106.528673
573,19211680,广州市广州市天河区花城大道85号,广州市,广州市天河区花城大道85号,广州微雨,广州天河区洛萱医疗美容门诊有限公司,25,10,15,10,189280.00元,23.12034,113.32146
574,19211681,长沙市长沙市开福区湘雅路街道湘江中路一段160号复地崑玉府D栋116号房,长沙市,长沙市开福区湘雅路街道湘江中路一段160号复地崑玉府D栋116号房,湘亚谷,湖南亚谷医疗美容有限公司,59,32,27,31,644069.00元,28.210205,112.977097
575,19211682,长沙市长沙市雨花区人民中路568号融圣国际10栋,长沙市,长沙市雨花区人民中路568号融圣国际10栋,湘美奥,长沙美奥口腔医院有限公司,15,10,5,10,144505.00元,28.18489,113.00838
576,19211683,天津天津市河东区大直沽中路128号,天津,天津市河东区大直沽中路１２８号,津河东丽,天津河东丽人医院,11,4,7,4,45579.00元,39.10989,117.23779
577,19211684,深圳市深圳市南山区粤海街道后海大道后海花园七号楼一楼东面、二楼整层,深圳市,深圳,易容颜,深圳易容颜医疗美容门诊部有限公司,2,1,1,1,8800.00元,22.513081,113.931198
578,19211685,保定市保定市竞秀区韩北街道办事处翠园社区朝阳北大街485号,保定市,保定市竞秀区韩北街道办事处翠园社区朝阳北大街485号,保定蓝山,保定市竞秀区蓝山医疗美容医院,106,60,46,59,1124708.00元,38.88317,115.46891
579,19211687,绍兴市浙江省绍兴市越城区城南街道高立花园11幢A区1、2,绍兴市,浙江省绍兴市越城区城南街道高立花园11幢A区1、2,绍兴华美,绍兴越城华美医疗门诊部,207,148,59,148,2189101.00元,29.971901,120.577797
580,19211688,南京市南京鼓楼区汉中路8号物金轮天地购中心c203-1号,南京市,南京鼓楼区汉中路8号物金轮天地购中心c203-1号,南京微颜,南京微颜医疗美容诊所有限公司,52,34,18,34,657240.00元,32.04229,118.78063
581,19211689,南通市崇川区江海名苑1幢1202室,南通市,崇川区江海名苑1幢1202室,样佳人,崇川区样佳人医疗美容门诊部,138,46,92,46,929500.00元,32.015308,120.868813
582,19211690,金华市稠江街道滨西路329号,金华市,浙江省义乌市稠江街道滨西路329号,义欧莱美,义乌欧莱美医疗美容医院有限公司,435,289,146,284,4748556.00元,29.286449,120.038918
583,19211692,东莞市东莞市东城街道东纵大道189号设计大厦1-3楼,东莞市,东莞市东城街道东纵大道189号设计大厦1-3楼,东莞非凡,东莞市东城非凡美容医院有限公司,6,1,5,1,30000.00元,23.033581,113.784767
584,19211693,天津天津市南开区怀安路与三潭路交口东北侧兴业家园公建2号楼-110.117.201.202.203.204,天津,天津市南开区怀安环路与三潭路交口东北侧兴业家园公建2号楼-110、117、201、202、203、204,津还美,天津南开区还美医疗美容门诊部,97,20,77,20,391750.00元,39.124104,117.157669
585,19211695,武汉市江汉区新华路248号新314号登月大厦1-5层,武汉市,江汉区新华路248号新314号登月大厦1-5层,鄂韩辰医,武汉韩辰医疗美容医院有限公司,73,32,41,32,470840.00元,30.59081,114.27471
586,19211696,金华市婺城区苏孟乡八一南街2020号,金华市,,金华美辰,金华市美辰医疗美容有限公司,5,1,4,1,30000.00元,29.05111,119.65768
587,19211697,镇江市镇江市润州区万达广场DB1栋9层,镇江市,镇江市润州区万达广场DB1栋9层,镇江瑞丽,润州瑞丽医疗美容门诊部,24,5,19,5,97380.00元,32.199509,119.456352
588,19211698,广州市广州市天河区花城大道663号一，二层,广州市,,广州慕美,广州慕美医疗企业管理咨询有限公司,12,1,11,1,23260.00元,23.11806,113.34213
589,19211699,长沙市湖南省长沙市岳麓区洋湖街道坪塘路337号和顺逸品苑商业5号楼第一层101、101复号,长沙市,湖南省长沙市岳麓区洋湖街道坪塘路337号和顺逸品苑商业5号楼第一层101、101复号,湘瑞铂诗,湖南瑞铂诗医疗整形美容有限公司,57,38,19,38,1008700.00元,28.12881,112.93903
590,19211700,青岛市青岛市市北区辽宁路94号,青岛市,青岛市市北区辽宁路94号,鲁博士美,市北区博士医院,281,185,96,184,2955027.00元,36.08334,120.33982
591,19211701,上海上海市静安区凤阳路558号一层二层、560号一层二层,上海,上海市静安区凤阳路558号一层、二层，560号,江依南,上海江依南医疗美容门诊部有限公司,23,14,9,14,328780.00元,31.2329,121.4659
592,19211702,贵阳市贵州省贵阳市观山湖区美的林城时代第E-03，F-01栋6层1、2、3、4、23、24、25、26、27号,贵阳市,贵州省贵阳市观山湖区美的林城时代第E-03，F-01栋6层1、2、3、4、23、24、25、26、27号,颜之美,贵阳颜之美医疗投资管理有限公司,6,2,4,2,39580.00元,26.63929,106.65226
593,19211703,贵阳市贵州省贵阳市观山湖区金阳南路298号睿力上城（世纪警苑）第B1/B2/B3一层14号房,贵阳市,贵州省贵阳市观山湖区金阳南路298号睿力上城（世纪警苑）第B1/B2/B3一层14号房,贵阳利美,贵阳利美康医院门诊部有限公司,3,0,3,0,0.00元,26.60782,106.62096
594,19211704,济南市历下区泺源大街6号新闻大厦5楼,济南市,历下区泺源大街6号,鲁熙美人,济南历下熙美人医疗美容诊所,300,185,115,185,3732355.00元,36.66019,117.0365
595,19211705,台州市台州市巨鼎国际商厦112-115号,台州市,台州市巨鼎国际商厦112-115号,韩黛美,台州韩黛美医疗美容有限公司,55,31,24,31,686665.00元,28.65097,121.412987
596,19211706,杭州市杭州市西湖区古墩路387-1号二楼,杭州市,杭州市西湖区古墩路387-1号二楼,杭州华梦,杭州华梦医疗美容诊所有限公司,34,15,19,15,293800.00元,30.28223,120.09922
597,19211707,武汉市洪山区珞南街珞狮北段2号樱花大厦b座207号商铺,武汉市,洪山区珞南街珞狮北路2号樱花大厦b座207号商铺,鄂聚医医,武汉洪山聚医医疗美容门诊部,138,71,67,71,1362915.00元,30.53323,114.355583
598,19211708,济南市济南市历下区花园路189号一楼东侧,济南市,山东省济南市历下区花园路189号一楼东侧,济悦佳人,济南悦佳人丽格医疗美容门诊部有限公司,4,2,2,2,41200.00元,36.68182,117.05213
599,19211709,唐山市唐山市体育馆道4号,唐山市,唐山市体育馆道4号,唐山金荣,唐山金荣医院,178,79,99,77,1188394.00元,39.64037,118.18829
600,19211710,天津天津市河西区乐园道2号乐园大厦701-707室，805-807室,天津,天津市河西区乐园道２号乐园大厦７０１－７０７室、８０５－８０７室,津慈恩田,天津河西慈恩田医疗整形医院,105,56,49,55,1290050.00元,39.09105,117.21868
601,19211711,六安市六安市阳光威尼斯南区7#楼103.203铺,六安市,六安市阳光威尼斯南区7#楼103.203铺,安徽嘉秀,六安市嘉秀医疗美容有限公司,3,2,1,2,45000.00元,31.752581,116.508232
602,19211712,宜昌市宜昌市西陵区四新路1-207号,宜昌市,宜昌市西陵区四新路1-207号,宜昌伊莱,宜昌市西陵区伊莱美整形医疗美容门诊部,135,91,44,91,978285.00元,30.69894,111.28649
603,19211714,济南市济南市历下区泺源大街68号玉泉森信大酒店A座28层,济南市,济南市历下区文化东路28号,济南时光,济南时光医疗美容医院有限公司,127,80,47,80,1726620.00元,36.66004,117.02797
604,19211715,南通市南通市崇川区中南世纪城28幢0123-0221-0222-0221-0225室,南通市,南通市崇川区中南世纪城28幢0123-0221-0222-0221-0225室,南美贝尔, 南通美贝尔医疗美容门诊部有限公司,6,0,6,0,0.00元,31.97011,120.900871
605,19211717,济南市济南市槐荫区德裕家园二区3-1-117,济南市,济南市槐荫区德裕家园二区3-1-117,济南亿莱,济南亿莱医药信息咨询有限公司,2,2,0,2,44000.00元,36.65708,116.96752
606,19211718,东莞市东莞市莞城区东城南路东升大厦1楼12、13号铺位,东莞市,东莞市莞城区东城南路东升大厦1楼12、13号铺位,粤圣之慧,东莞莞城圣之慧医疗美容门诊部有限公司,52,35,17,35,509260.00元,23.02725,113.768982
607,19211719,合肥市安徽省合肥市新站区胜利北路瑞景家园4幢5号,合肥市,安徽省合肥市新站区胜利北路瑞景家园4幢5号,hffh,合肥瑶海福华医疗美容门诊部,2,0,2,0,0.00元,31.87811,117.311966
608,19211720,常州市常州市新北区嵩山路5号,常州市,常州市新北区嵩山路5号,曙光医疗,常州曙光医疗美容医院有限公司,75,33,42,33,324087.00元,31.81803,119.96236
609,19211721,成都市四川省德阳市庐山北路50号裕晖园综1幢1-2、2-2号,成都市,四川省德阳市庐山北路50号裕晖园综1幢1-2、2-2号,德阳东美,德阳东美奥拉克医疗美容整形门诊部（有限合伙）,269,172,97,171,2750396.00元,30.65984,104.10194
610,19211722,成都市遂宁市船山区盐市街97号,成都市,遂宁市船山区盐市街97号,遂宁伊莎,遂宁市伊莎贝拉医学美容门诊部,30,19,11,19,275360.00元,30.509553,105.57707
611,19211724,保定市河北省保定市竞秀区阳光北大街西侧天鹅西路南、假日雅典城第9幢2单元商业14号房,保定市,河北省保定市竞秀区天鹅西路南、假日雅典城第阳光北大街西侧假日雅典城第9幢2单元商业14号房,保定悦容,保定悦容医疗美容诊所,15,6,9,6,85537.00元,38.889271,115.480782
612,19211725,成都市成都市武侯区人民南路四段3号1栋12层,成都市,成都市武侯区人民南路四段3号1栋12层,成都悦丽,成都武侯悦丽医疗美容门诊部有限公司,12,9,3,9,96040.00元,30.63196,104.06711
613,19211726,湛江市湛江市人民大道中28号（琼盛中心9楼）,湛江市,湛江市人民大道中28号（琼盛中心9楼）,湛江名媛,湛江开发区名媛医学美容门诊部,7,2,5,1,15000.00元,21.22421,110.39533
614,19211727,南通市南通市崇川区青年中路61号,南通市,南通市崇川区青年中路61号,南通康美,南通康美美容医院有限公司,25,10,15,9,135408.00元,32.00414,120.8769
615,19211728,南通市南通市工农路324号,南通市,南通市工农路324号,南通城东,南通城东医疗美容门诊部,5,2,3,2,55800.00元,32.02404,120.8809
616,19211729,成都市成都市成华区建设北路三段2号1栋1单元26层4、5、6、7号,成都市,成都市成华区建设北路三段2号1栋1单元26层4、5、6、7号,川俏百颜,成都俏百颜生物科技有限公司,49,28,21,27,440564.00元,30.673929,104.107733
617,19211730,南通市南通市崇川区东昇花园4幢4层02室,南通市,南通市崇川区东昇花园4幢4层02室,玫瑰医疗,崇川区玫瑰医疗美容门诊部,1,1,0,1,14100.00元,32.021759,120.87899
618,19211731,南京市南京市秦淮区太平南路389号,南京市,南京市秦淮区太平南路389号,江苏,江苏施尔美整形美容医院有限公司,115,78,37,77,1579369.00元,32.02902,118.79133
619,19211732,济南市济南市历下区和平路48-1号,济南市,济南市历下区和平路48-1号,济南丽珍,济南丽珍美容医院,4,4,0,4,105000.00元,36.66082,117.04679
620,19211733,台州市台州市鑫泰广场二层2A01/2A02/2A03/2A05,台州市,台州市鑫泰广场二层2A01/2A02/2A03/2A05,台州京蓉,台州经济开发区京蓉医疗美容门诊部,3,2,1,2,31800.00元,28.6514,121.41684
621,19211734,深圳市深圳市罗湖区东门街道东门中路2002号江南大厦2、3、4楼,深圳市,深圳罗湖区东门街道东门中路2002号江南大厦2、3、4楼,江南春天,深圳江南春天医疗美容医院有限公司,29,9,20,9,163600.00元,22.54614,114.12186
622,19211735,广州市广州市白云区云城南3路398号,广州市,广州市白云区云城南3路398号,广轻伊美,广州轻伊美皮肤专科门诊有限公司,1,1,0,1,13000.00元,23.171431,113.264351
623,19211737,广州市广州市天河区林和东路200号,广州市,广州市天河区林和东路200号,广威利斯,广州市天河区威利斯医疗门诊部,1,0,1,0,0.00元,23.14588,113.3286
624,19211738,株洲市湖南省株洲市天元区嵩山路丽景滨江七栋110/202号,株洲市,湖南省株洲市天元区嵩山路丽景滨江七栋110/202号,株洲致美,株洲致美医疗美容医院有限公司,20,8,12,7,73751.00元,27.83861,113.13446
625,19211739,珠海市珠海市香洲区拱北九洲大道西1666号格力香樟13栋118-220商铺,珠海市,珠海市香洲区拱北九洲大道西1666号格力香樟13栋118-220商铺,珠海科美,珠海科美医疗美容有限公司,77,40,37,38,679168.00元,22.23782,113.54769
626,19211740,佛山市佛山市顺德区大良近良新桂南路10号御名峰公馆7号商铺之一,佛山市,佛山市顺德区大良近良新桂南路10号御名峰公馆7号商铺之一,佛美哒哒,佛山市美哒哒医疗美容门诊部有限公司,14,9,5,9,109787.00元,22.822889,113.271027
627,19211741,佛山市佛山市南海区桂城街道桂澜北路28号南海万达广场南5栋101号铺,佛山市,佛山市南海区桂城街道桂澜北路28号南海万达广场南5栋101号铺,佛凯瑟琳,佛山市凯瑟琳医学美容门诊有限公司,100,65,35,62,1215362.00元,23.06307,113.15729
628,19211742,成都市成都市青羊区二环路西二段217号,成都市,成都市青羊区二环路西二段217号,丝缘医疗,成都青羊丝缘毛发医疗美容门诊部有限公司,60,42,18,42,640517.00元,30.67996,104.02763
629,19211743,东莞市东莞市南城街道鸿福西路天诚康桥华苑商住楼201号,东莞市,东莞市南城街道鸿福西路天诚康桥华苑商住楼201号,东莞韩美,东莞南城健瑞韩美医疗美容门诊部有限公司,58,16,42,16,278654.00元,23.018021,113.737457
630,19211744,佛山市佛山市禅城区汾江中路68号,佛山市,佛山市禅城区汾江中路68号,佛曙光金,佛山曙光金子医学美容医院有限公司,85,25,60,24,386111.00元,23.03304,113.10869
631,19211745,上海新会路131号,上海,上海市普陀区新会路131-139号1楼102室、2楼201、202、213、214室,纽赛,上海纽赛医疗美容门诊部有限公司,161,61,100,60,1562200.00元,31.24169,121.44263
632,19211746,南京市南京市鼓楼区广州路228号801/802/803/804室,南京市,南京市鼓楼区广州路228号801/802/803/804室,南京薇琳,南京薇琳医疗美容诊所有限公司,43,16,27,16,272848.00元,32.05188,118.77224
633,19211748,南京市南京市秦淮区中山东路532-1号,南京市,南京市秦淮区中山东路532-1号,熙而美,南京熙而美医疗美容有限公司,252,134,118,132,2787464.00元,32.03861,118.82209
634,19211749,成都市武侯区丽都路518号1栋2层201号,成都市,武侯区丽都路518号1栋2层201号,雍和华仁,成都武侯雍和华仁医疗美容诊所,190,103,87,103,2084740.00元,30.62394,104.03189
635,19211751,成都市中国（四川）自由贸易试验区成都高新区交子大道88号3栋2层1号,成都市,中国（四川）自由贸易试验区成都高新区交子大道88号3栋2层1号,成都东美,成都东美医学美容整形门诊部有限公司,8,3,5,3,45400.00元,30.58367,104.06157
636,19211752,杭州市浙江省杭州市萧山区钱江世纪公园B区11幢,杭州市,浙江省杭州市萧山区钱江世纪公园B区11幢,亚美宏韩,杭州萧山亚美宏韩医疗美容门诊部有限公司,178,46,132,44,1111460.00元,30.242613,120.233238
637,19211753,台州市浙江省台州市温岭市城东街道万昌中路1257号（三楼）,台州市,浙江省台州市温岭市城东街道万昌中路1257号（三楼）,台州美诺,温岭美诺整形外科门诊部有限公司,35,21,14,20,338301.00元,28.40307,121.38055
638,19211754,杭州市桐庐县城迎春南路279号立山国际中心1603/1604/1605室,杭州市,桐庐县城迎春南路279号立山国际中心1603/1604/1605室,桐庐华美,桐庐华美美瑞医疗美容门诊部有限公司,85,34,51,33,585339.00元,29.79144,119.6922
639,19211755,广州市广州市天河区天河北路569号二层,广州市,广州市天河区天河北路569号二层01房自编001号,广州雅度,广州雅度医疗美容门诊部有限公司,146,79,67,79,1336339.00元,23.14174,113.33654
640,19211756,重庆重庆市万州区高笋塘2号2楼,重庆,重庆市万州区高笋塘2号2楼,万州华美,万州华美整形医院,403,305,98,299,3997657.00元,30.812321,108.376152
641,19211757,宜昌市宜昌市沿江大道169号福江铭座3楼,宜昌市,湖北省宜昌市沿江大道特162号3楼,宜楚美人,宜昌市伍家岗区楚美人医疗美容诊所,33,14,19,14,256700.00元,30.67527,111.31633
642,19211758,杭州市杭州市江干区迪凯银座1702室,杭州市,杭州市江干区迪凯银座1702室,杭州颜控,杭州颜控医疗美容诊所有限公司,20,5,15,5,117800.00元,30.241831,120.211708
643,19211759,蚌埠市安徽省蚌埠市延安路456号,蚌埠市,安徽省蚌埠市延安路456号,蚌美莱坞,蚌埠经济开发区东方美莱坞医疗美容门诊部,51,7,44,7,149200.00元,32.93895,117.37232
644,19211760,济南市山东省济南市历下区奥体西路保利华庭公建3号楼,济南市,山东省济南市历下区奥体西路保利华庭公建3号楼,济维纳斯,济南维纳斯美容医院有限公司,35,11,24,11,192252.00元,36.69043,117.10553
645,19211761,上海上海嘉定区金沙江路2890弄46号,上海,上海嘉定区金沙江路2890弄46号,沪美尔雅,上海美尔雅医疗美容门诊部有限公司,163,93,70,91,2497380.00元,31.24242,121.36057
646,19211762,上海上海市黄浦区打浦路15号2601-2603，2605-2608室,上海,上海市黄浦区打浦路15号2601-2603，2605-2608室,历思,上海历思医疗美容门诊部,1033,678,355,664,19546720.00元,31.2045,121.47114
647,19211763,东莞市东莞市莞城区体育路25号龙光君御旗峰23铺位,东莞市,东莞市莞城区体育路25号龙光君御旗峰23铺位,粤王晓杰,东莞莞城王晓杰医疗美容诊所有限公司,30,15,15,15,353000.00元,23.024401,113.760132
648,19211764,青岛市山东省青岛市市南区漳州一路33号商铺2楼,青岛市,山东省青岛市市南区漳州一路33号商铺二楼,鲁江南美,青岛江南名佳医学美容有限公司市南江南名佳医疗美容诊所,29,15,14,15,309000.00元,36.068851,120.400261
649,19211765,成都市泸州市江阳区江阳西路12幢1层2号,成都市,泸州市江阳区江阳西路12幢1层2号,泸州花都,泸州市医美花都整形美容诊所,23,10,13,10,79900.00元,28.87392,105.44028
650,19211767,天津天津市和平区南市街慎益大街118号,天津,天津市和平区南市街慎益大街118号,津华雍,天津市华雍医疗美容门诊有限公司,9,4,5,4,88000.00元,39.13388,117.18332
651,19211769,宁波市宁波市百丈路16号。大戴街22号,宁波市,宁波市鄞州区大戴街22号,宁波吾悦,宁波吾悦医疗美容,71,16,55,15,292880.00元,29.86585,121.56162
652,19211770,武汉市武昌区中北路武汉中央文化区k1地块一期一区第k1-s2、s3幢1-3层26号,武汉市,武昌区中北路武汉中央文化区k1地块一期一区第k1-s2、s3幢1-3层26号,鄂艺君美,武汉艺君美韩医疗美容门诊部有限公司,16,7,9,7,141800.00元,30.553221,114.347008
653,19211771,长沙市开福区芙蓉中路一段119号标志大厦101,长沙市,开福区芙蓉中路一段119号标志大厦101,湘一美,长沙一美医疗咨询管理有限公司,14,6,8,6,108200.00元,28.222781,112.987894
654,19211772,株洲市湖南省株洲市天元区耀华新村8栋103、104号门面,株洲市,湖南省株洲市天元区耀华新村8栋103、104号门面,株洲参美,天元区参美医疗美容诊所,13,4,9,4,55400.00元,27.830145,113.134987
655,19211773,厦门市厦门市思明区湖滨北路57号第二层0223单元,厦门市,厦门市思明区湖滨北路57号第二层0223单元,闽欣医美,厦门思明欣医美整形外科门诊部有限公司,42,25,17,25,387063.00元,24.47948,118.0844
656,19211774,杭州市杭州市萧山区北干街道金城路443号,杭州市,萧山区北干街道金城路443号,艺之花,杭州艺之花医疗投资管理有限公司萧山金城路医疗美容诊所,48,28,20,28,732760.00元,30.1819,120.25702
657,19211776,嘉兴市浙江省嘉兴市海宁市海州街道海昌南路306号,嘉兴市,浙江省嘉兴市海宁市海州街道海昌南路306号,海宁维多,海宁维多利亚医疗美容诊所有限公司,14,7,7,7,73640.00元,30.507165,120.693826
658,19211779,东莞市东莞市南城街道黄金路888号深业-御泉山庄5栋商铺201号,东莞市,东莞市南城街道黄金路888号深业-御泉山庄5栋商铺201号,东莞西妃,东莞市南城西妃医疗美容门诊部,21,5,16,5,100000.00元,22.975559,113.714127
659,19211780,长沙市长沙市芙蓉区五里牌街道远大路001号第二层西头,长沙市,长沙市芙蓉区远大路001号二楼西头,湘摩登丽,湖南摩登丽医疗美容有限公司,25,4,21,4,83400.00元,28.19541,113.010162
660,19211782,武汉市武昌区水果湖街中央文化区一期k9-1地块,武汉市,武昌区水果湖街中央文化区一期k9-1地块(御湖世家)第一栋一单元1-2层商18至23号,鄂赫本医,武汉赫本医疗美容门诊有限公司,288,129,159,127,2932930.00元,30.553221,114.347008
661,19211783,佛山市佛山市南海区桂城街道南海大道北84号越秀星汇云锦广场一区商场L3层B305-1号商铺,佛山市,佛山市南海区桂城街道南海大道北84号越秀星汇云锦广场一区商场L3层B305-1号商铺,佛智媄医,佛山市智媄医学美容门诊有限公司,3,1,2,1,18300.00元,23.03145,113.1426
662,19211784,成都市成都市锦江区龙舟路68号1栋1层6号,成都市,成都市锦江区龙舟路68号1栋1层6号,川萃颜堂,成都锦江萃颜堂医学门诊部有限公司,9,2,7,2,32280.00元,30.62709,104.09922
663,19211785,广州市广州市越秀区寺右二马路57号雍景台1至3层,广州市,广州市越秀区寺右二马路57号雍景台一至三层自编首层A18、三层388房,广州艾唯,广州市艾唯医疗门诊部有限公司,81,25,56,25,509800.00元,23.12162,113.3097
664,19211786,广州市广州市天河区珠江新城海月路411号,广州市,广州市天河区珠江新城海月路411号,广新发现,广州新发现医疗美容门诊部有限公司,2,0,2,0,0.00元,23.11459,113.34245
665,19211787,广州市广州市天河区东莞庄路2号财润国际大厦2901室,广州市,广州市天河区东莞庄路2号财润国际大厦2901室,姬妍赏美,广州姬妍赏美医疗美容门诊部有限公司,53,19,34,19,420722.00元,23.14947,113.3346
666,19211788,揭阳市揭阳市榕城区仁义路以东新阳路以北东门五金制品厂综合楼,揭阳市,揭阳市榕城区仁义路以东新阳路以北东门五金制品厂综合楼,华美医疗,揭阳市榕城区华美医疗美容门诊部,214,77,137,77,1395253.00元,23.55341,116.36376
667,19211789,南京市中山北路45号,南京市,南京鼓楼区中山北路45号,南京怡华,南京怡华医疗美容诊所有限公司,491,245,246,223,5547000.00元,32.06249,118.77958
668,19211790,济南市济南市历下区和平路53号,济南市,济南市历下区和平路53号,济南瑞丽,济南瑞丽医疗美容医院,4,0,4,0,0.00元,36.66106,117.04331
669,19211791,杭州市浙江省杭州市拱墅区隐秀路205号,杭州市,浙江省杭州市拱墅区隐秀路205号,阡陌红尘,杭州善慈医疗美容诊所有限公司,105,54,51,52,1061341.00元,30.29923,120.12731
670,19211792,成都市四川省资阳市雁江区建设南路二段225-227号,成都市,四川省资阳市雁江区建设南路二段225-227号,韩美整形,资阳市雁江区韩美医学整形美容门诊部,11,3,8,3,60000.00元,30.11537,104.649193
671,19211794,成都市乐山市市中区青衣路55号,成都市,乐山市市中区青衣路55号,乐山秋田,乐山秋田医学美容有限公司,19,9,10,9,104160.00元,29.55895,103.72501
672,19211795,成都市四川省乐山市市中区鹤翔路532号,成都市,四川省乐山市市中区鹤翔路532号,乐圣美罗,乐山圣美罗医疗投资有限公司,70,47,23,46,648100.00元,29.609921,103.737251
673,19211796,成都市四川省乐山市市中区春华路中段564号2楼,成都市,四川省乐山市市中区春华路中段564号2楼,乐达芬奇,乐山达芬奇医疗美容门诊部有限公司,32,17,15,17,186844.00元,29.59714,103.74695
674,19211797,宜昌市西陵区沿江大道68-9号,宜昌市,宜昌市西陵区沿江大道68-9号,宜昌瑞铭,宜昌瑞铭医疗美容有限公司,6,0,6,0,0.00元,30.69882,111.28044
675,19211798,成都市邛崃市临邛街道君平大道1号附1号,成都市,邛崃市临邛街道君平大道1号附1号,青春丽人,成都青春丽人医学美容诊所有限责任公司,26,19,7,18,321800.00元,30.41777,103.473289
676,19211799,南通市如皋市如城街道余庄花园约克小镇5幢一层,南通市,如皋市如城街道余庄花园约克小镇5幢一层,高美医疗,如皋市东楠医疗美容有限公司高美医疗美容门诊部,6,1,5,1,20000.00元,32.395271,120.609428
677,19211801,杭州市杭州市邮电路18/19号,杭州市,杭州市邮电路18/19号,临湖门诊,杭州临湖门诊部,7,3,4,3,70000.00元,30.25196,120.16936
678,19211802,芜湖市芜湖市镜湖区文化路19-9号,芜湖市,芜湖市镜湖区文化路19-9号,皖伊莱美,芜湖伊莱美整形外科医院,31,16,15,16,206727.00元,31.34249,118.38687
679,19211803,成都市成都市锦江区琉璃路289号1层,成都市,成都市锦江区琉璃路289号1层,锦江焕容,成都锦江焕容医疗美容诊所有限公司,15,1,14,1,17400.00元,30.6164,104.09302
680,19211804,合肥市合肥市包河区滨湖区徽州大道5136号滨湖世纪城临滨苑B幢2507室,合肥市,合肥市包河区滨湖区徽州大道5136号滨湖世纪城临滨苑B幢2507室,合肥丽都,合肥丽都医疗美容门诊有限公司,14,11,3,11,235400.00元,31.74629,117.28786
681,19211805,广州市广州市白云区机场路18号首层，二层,广州市,广州市白云区机场路18号首层，二层,广美美雅,广州广美美雅医疗美容门诊部有限公司,3,0,3,0,0.00元,23.15978,113.26404
682,19211806,重庆重庆市大渡口区春晖路街道柏华街23号,重庆,重庆市大渡口区春晖路街道柏华街23号,重庆万家,重庆万家燕鸿源医院有限公司,20,4,16,4,109800.00元,29.46475,106.48357
683,19211807,合肥市安徽省合肥市蜀山区长江西路471号,合肥市,安徽省合肥市蜀山区长江西路471号,安徽长征,安徽长征微创外科医院,1,0,1,0,0.00元,31.85214,117.230914
684,19211808,合肥市安徽省合肥市包河区巢湖南路88号元一柏庄LOFT及沿街商铺LT-W2-101.201.202,合肥市,安徽省合肥市包河区巢湖南路88号元一柏庄LOFT及沿街商铺LT-W2-101.201.202,皖艾尚美,安徽艾尚美医疗美容有限公司,20,6,14,6,99800.00元,31.84496,117.31615
685,19211809,成都市成都市锦江区红星路四段265号1栋3层,成都市,成都市锦江区红星路四段265号1栋3层,韩亮馨锐,成都锦江馨锐医疗美容诊所有限公司,26,12,14,12,223440.00元,30.65113,104.07768
686,19211810,无锡市无锡市人民路301号,无锡市,无锡市人民路301号,美联臣,无锡苏亚美联臣医疗美容医院有限公司,26,6,20,6,116248.00元,31.577719,120.292686
687,19211811,南通市崇川区长江中路88号,南通市,崇川区长江中路88号,南通佳美,南通市崇川区佳美医疗美容门诊部,73,29,44,29,487160.00元,32.00473,120.83206
688,19211812,汕头市汕头市龙湖区金砂路127号华侨商业银行大厦金怡大厦裙楼一至三楼,汕头市,汕头市龙湖区金砂路127号华侨商业银行大厦金怡大厦裙楼一至三楼,汕头华美,汕头华美医疗美容医院有限公司,49,24,25,22,273252.00元,23.36677,116.72765
689,19211814,成都市成都市高新区盛安街288号附320、321、401、402、405号,成都市,成都市高新区盛安街288号附320、321、401、402、405号,成星肤汇,成都高新星肤汇医疗美容诊所有限公司,4,1,3,1,6000.00元,30.557989,104.048279
690,19211815,广州市广州市天河区平苑街1号107房、205房、206房,广州市,,广州蔓辰,广州蔓辰整形美容医疗门诊部有限公司,2,0,2,0,0.00元,23.11546,113.34636
691,19211818,无锡市无锡中山路807.819-821号,无锡市,无锡中山路807.819-821号,无锡丽都,丽都整形美容医院股份有限公司,90,50,40,47,668936.00元,31.58854,120.29339
692,19211819,长沙市湖南省长沙市岳麓区望城坡街道麓景路4号,长沙市,湖南省长沙市岳麓区望城坡街道麓景路4号,湘逸韩,长沙逸韩医疗美容门诊部,72,47,25,47,583700.00元,28.20801,112.90637
693,19211820,长沙市长沙市芙蓉区韶山北路39号,长沙市,长沙市芙蓉区韶山北路39号,湘伊菲,长沙市伊菲医疗美容有限公司,2,0,2,0,0.00元,28.18772,112.99689
694,19211821,杭州市浙江省杭州市拱墅区余杭塘路501号,杭州市,浙江省杭州市拱墅区余杭塘路501号,杭州媂麦,杭州媂麦健康管理有限公司余杭塘路医疗美容诊所有限责任公司分公司,59,47,12,46,849230.00元,30.294249,120.102667
695,19211822,广州市广州市天河区燕岭路89号218房,广州市,广州市天河区燕岭路89号218房,广州博仕,广州天河区博仕整形外科门诊部合伙企业（普通合伙）,12,7,5,6,165000.00元,23.16065,113.32782
696,19211823,六安市六安市皋城路星汇苑三期19#楼12#,六安市,六安市皋城路星汇苑三期19#楼12#,皖伊而美,六安市裕安区伊而美美容中心,6,3,3,3,45360.00元,31.76446,116.500214
697,19211824,青岛市山东省青岛市黄岛区嘉陵江东路1号1-10,青岛市,山东省青岛市黄岛区嘉陵江东路1号1-10,鲁雅美汇,青岛雅美汇医疗美容门诊有限公司,34,19,15,18,241540.00元,35.95764,120.237
698,19211825,长沙市长沙市开福区万达广场万达公馆a区1片6栋125，126号,长沙市,长沙市开福区万达广场万达公馆A区1片6栋126,湘美奥,长沙美奥口腔万达门诊部,21,17,4,17,251108.00元,28.197241,112.969879
699,19211827,成都市武侯区佳灵路3号2幢7层709号,成都市,武侯区佳灵路3号2幢7层709号,川维美度,武侯维度医疗美容诊所,11,4,7,4,78000.00元,30.63442,104.02979
700,19211828,成都市成都市武侯区高攀路20号3栋11楼1106,成都市,成都市武侯区高攀路20号3栋11楼1106,成都美熹,成都武侯美熹医疗美容诊所有限公司,28,18,10,18,263023.00元,30.61259,104.08197
701,19211829,广州市广州市海珠区东晓南尚领二街17号2层,广州市,广州市海珠区东晓南尚领二街17号2层,广达琳思,广州达琳思医疗美容门诊部有限公司,58,17,41,17,311880.00元,23.071039,113.294441
702,19211831,天津天津市河西区东江道南侧青林大厦3/4-909-2,天津,天津市河西区东江道南侧青林大厦3/4-909-2,津姝嫣,天津姝嫣医疗美容门诊有限公司,14,10,4,10,218600.00元,39.07061,117.247643
703,19211832,湖州市浙江省湖州市长兴县雉城街道图影大道318号,湖州市,浙江省湖州市长兴县雉城街道图影大道318号,湖州国泰,长兴国泰康复医院有限公司,21,15,6,15,214850.00元,30.99407,119.93055
704,19211833,台州市浙江省台州市温岭市城西街道中华路590号（4楼）,台州市,浙江省台州市温岭市城西街道中华路590号（4楼）,温岭邦妮,温岭邦妮医疗美容医院有限公司,2,1,1,1,16600.00元,28.38781,121.36562
705,19211834,杭州市浙江省杭州市滨江区西兴街道江陵路1916号兴祺大厦3幢1301-1室、1301-2、1301-3室,杭州市,浙江省杭州市滨江区西兴街道江陵路1916号兴祺大厦3幢1301-1室、1301-2、1301-3室,杭美立方,杭州美立方医疗美容门诊部有限公司,8,3,5,3,60000.00元,30.21114,120.21625
706,19211835,杭州市杭州市下城区庆春路60号东清大厦201-2室,杭州市,杭州市下城区庆春路60号东清大厦201-2室,杭凯瑟琳,杭州凯瑟琳医疗美容诊所有限公司,29,12,17,11,147660.00元,30.25824,120.17806
707,19211836,成都市四川省巴中市巴州区八角楼街52-54号二楼,成都市,四川省巴中市巴州区八角楼街52-54号二楼,巴中伊韩,巴中依韩医疗美容有限公司,128,82,46,81,1169157.00元,31.85173,106.76274
708,19211837,济南市山东省济南市历下区省府前街西侧红尚坊15号楼,济南市,山东省济南市历下区省府前街西侧红尚坊15号楼,济南润镜,历下润境医疗美容诊所,3,1,2,1,8780.00元,36.665478,117.020439
709,19211838,成都市成都市金牛区五福桥东路6号5栋3层308,成都市,成都市金牛区五福桥东路6号5栋3层308,成都议月,成都金牛议月医疗美容诊所有限公司,2,1,1,1,22800.00元,30.71267,104.06502
710,19211839,金华市金华市婺城区八一南街823号,金华市,,金华心艺,金华心艺综合门诊部合伙企业（普通合伙）,4,0,4,0,0.00元,29.07728,119.65587
711,19211841,襄阳市襄阳市高新区长虹北路33号,襄阳市,襄阳市高新区长虹北路33号,鄂襄阳,襄阳禾丽积佳整形美容有限公司,185,133,52,132,1721180.00元,32.0684,112.13344
712,19211842,杭州市浙江省杭州市下城区环城东路339号一楼、环城北路1号、兰园6幢302、303、304、332、333、334室,杭州市,浙江省杭州市下城区环城东路339号一楼、环城北路1号、兰园6幢302、303、304、332、333、334室,杭州画蝶,杭州画蝶医疗美容门诊部有限公司,124,69,55,67,1532604.00元,30.27526,120.18558
713,19211844,绍兴市绍兴市上虞区百官街道市民大道1560号,绍兴市,绍兴市上虞区百官街道市民大道1560号,绍兴艺美,绍兴上虞艺美医疗美容诊所有限公司,30,20,10,19,248899.00元,30.03208,120.87114
714,19211845,台州市浙江省台州市路桥区路北街道银安街369号刚泰一品花园17幢樱花路699号,台州市,浙江省台州市路桥区路北街道银安街369号刚泰一品花园17幢樱花路699号,医美之家,台州医美之家医疗美容有限公司,135,88,47,87,2026020.00元,28.57761,121.35986
715,19211848,苏州市苏州市干将西路498号,苏州市,干将西路502号,维秘医美,维秘医疗美容诊所有限公司,10,0,10,0,0.00元,31.30443,120.60362
716,19211849,杭州市杭州市下城区万家星城3幢（商）1/2/3号,杭州市,杭州市下城区万家星城3幢（商）1/2/3号,杭州恒丽,杭州恒丽医疗美容诊所有限公司,81,46,35,45,1058430.00元,30.323469,120.173828
717,19211850,台州市浙江省台州市温岭市太平街道万泉东路369号,台州市,浙江省台州市温岭市太平街道万泉东路369号,台芘丽芙,温岭芘丽芙整形美容医院有限公司,60,37,23,36,640172.00元,28.36672,121.38946
718,19211851,台州市台州市黄岩区东城街道九峰路（黄岩国际大酒店内）,台州市,台州市黄岩区东城街道九峰路（黄岩国际大酒店内）,形象达人,台州黄岩形象达人医疗美容门诊部（普通合伙人）,41,19,22,19,468200.00元,28.641251,121.278282
719,19211852,南通市南通华强城74号楼3楼5-8店面,南通市,"南通市港闸区江海大道和北大街交汇处北大街2号华强广场F3-05,F3-06,F3-07,F3-08",南通韩美,南通韩美医疗美容有限公司,55,23,32,21,507400.00元,32.04108,120.862099
720,19211853,成都市成都市金牛区华丰路200号67栋-1楼1号,成都市,成都市金牛区华丰路200号67栋-1楼1号,川萱妮儿,成都金牛萱妮儿医疗美容诊所有限公司,2,2,0,2,80000.00元,30.71459,104.02763
721,19211854,无锡市无锡市新区旺庄路200-1,无锡市,无锡市新区旺庄路200-1,无锡菲尚,无锡菲尚医疗美容门诊部有限公司,29,15,14,15,247758.00元,31.53946,120.34981
722,19211856,天津天津市河东区华昌道80-92号,天津,天津市河东区华昌道80-92号,津美莱,天津河东美莱医学美容医院有限公司,75,54,21,53,722390.00元,39.13623,117.21939
723,19211857,温州市龙湾区蒲州街道蒲中路54号,温州市,,温华医堂,温州华医堂皮肤门诊部,2,2,0,2,6200.00元,27.99761,120.72847
724,19211858,南京市南京市秦淮区建康路281号,南京市,南京市秦淮区建康路281号,太医堂,南京市秦淮区太医堂中医门诊部,15,8,7,8,130000.00元,32.02386,118.79355
725,19211859,南京市南京市鼓楼区中央路397-3号,南京市,南京市鼓楼区中央路397-3号,南京京科,南京京科医院有限公司,9,3,6,3,53000.00元,32.08578,118.78386
726,19211860,东莞市东莞市南城街道元美路华凯广场C栋二楼,东莞市,东莞市南城街道元美路华凯广场C栋二楼,东莞知美,东莞南城知美医疗美容门诊有限公司,110,52,58,50,952004.00元,23.012899,113.745911
727,19211861,济南市济南市市中区融汇老商埠11栋楼301号,济南市,济南市市中区融汇老商埠11栋楼301号,济南君子,济南君子医疗美容服务有限公司,16,8,8,8,118260.00元,36.66148,116.992912
728,19211862,成都市成都市成华区高车三路69号5栋4楼1号,成都市,成都市成华区高车三路69号5栋4楼1号,成华悦妍,成都成华悦妍知美医疗美容诊所有限公司,22,4,18,4,65800.00元,30.6893,104.09985
729,19211863,杭州市杭州市下城区长浜路1128号1幢118室,杭州市,杭州市下城区长浜路1128号1幢118室,杭州菲琳,杭州菲琳美健康管理有限公司长浜路医疗美容诊所,5,3,2,3,102200.00元,30.32853,120.17804
730,19211864,嘉兴市嘉兴市名典公寓综合楼商06室一楼,嘉兴市,嘉兴市名典公寓综合楼商06室一楼,嘉蕾特恩,嘉兴市南湖区新兴街道蕾特恩美容院,4,2,2,2,25184.00元,30.759455,120.734665
731,19211865,杭州市浙江省杭州市下城区凤起路70号二楼,杭州市,浙江省杭州市下城区凤起路70号二楼,杭州新生,杭州新生医疗美容门诊部有限公司,243,169,74,162,2640007.00元,30.26466,120.18202
732,19211866,长沙市长沙市开福区新河街道晴岚路98号凤凰天阶苑B2E2区B2E2幢1035房,长沙市,350长沙市开福区新河街道晴岚路98号凤凰天阶苑B2E2区B2E2幢1035房,湘美邦臣,长沙美健邦臣医疗美容有限公司,2,1,1,1,40000.00元,28.23526,112.98429
733,19211867,广州市广州市天河区兴民路222号之一,广州市,广州市天河区兴民路222号之一,广州甯悦,广州甯悦医疗美容门诊部有限责任公司,12,5,7,5,142620.00元,23.11654,113.33292
734,19211868,天津天津市南开区南门外大街新泉大厦1号底商,天津,天津市南开区南门外大街新泉大厦1号底商,津联合,天津联合丽格医疗美容医院有限公司,14,6,8,6,125000.00元,39.12495,117.179153
735,19211869,长沙市长沙市雨花区韶山北路355号,长沙市,长沙市雨花区韶山北路355号,湘禾丽医,长沙市禾丽医疗美容有限公司雨花区门诊部,258,118,140,118,2428482.00元,28.17756,112.99708
736,19211870,广州市广州市荔湾区东风西路72号,广州市,,广州建国,广州建国医院,2,0,2,0,0.00元,23.13775,113.23616
737,19211871,广州市广州市白云区白灰场南路1号京隆大厦2楼201,广州市,广州市白云区白灰场南路1号京隆大厦2楼201,广清颜堂,广州清颜漟美容有限公司,289,176,113,175,1368341.00元,23.18568,113.32622
738,19211872,广州市广州市越秀区淘金东路95、97号首层自编95号首层,广州市,,广州嘉悦,广州嘉悦医疗美容门诊部（有限合伙）,4,0,4,0,0.00元,23.14274,113.29454
739,19211874,重庆重庆市南岸区南坪街道双石街A段2楼,重庆,重庆市南岸区南坪街道双石街A段2楼,奥妃整形,重庆奥妃整形美容门诊部,13,4,9,4,83000.00元,29.528681,106.565308
740,19211875,金华市婺城区人民西路346号,金华市,浙江省金华市婺城区人民西路346号,金华瑞丽,金华瑞丽门诊部（普通合伙）,118,46,72,46,822240.00元,29.10928,119.64564
741,19211876,滁州市滁州市琅琊区南谯北路521号南湖花园步行街1栋2楼,滁州市,滁州市琅琊区南谯北路521号南湖花园步行街1栋2楼,滁伊尔美,滁州市琅琊区伊尔美医疗美容诊所,20,13,7,13,149080.00元,32.31115,118.30963
742,19211877,合肥市合肥市经开区繁华大道松林路东碧湖蓝庭2栋,合肥市,合肥市经开区繁华大道松林路东碧湖蓝庭2栋,合肥健民,合肥经开区健民门诊部,264,120,144,120,2010990.00元,31.78235,117.20038
743,19211878,湘潭市湘潭市易俗河镇金桂北路西侧21号,湘潭市,湘潭市易俗河镇金桂北路西侧21号,潭美立方,湘潭县易俗河镇钱建军美容整形外科诊所,24,17,7,17,179320.00元,27.790581,112.949997
744,19211879,滁州市滁州市南谯南路2918号港汇中心商业楼,滁州市,滁州市南谯南路2918号港汇中心商业楼,滁坤知美,滁州市南谯区坤知美医学美容诊所,23,15,8,15,387600.00元,32.24081,118.331619
745,19211880,广州市广州市天河区黄埔大道西118号首层,广州市,广州市天河区黄埔大道西118号首层,广州瓷肌,广州瓷肌医疗美容门诊部有限公司,6,3,3,3,23800.00元,23.12618,113.33861
746,19211881,中山市中山市坦洲镇界狮南路6号郦湖居公寓3层A区,中山市,中山市坦洲镇界狮南路6号郦湖居公寓3层A区,中山越华,中山市越华综合门诊有限公司,19,12,7,11,254100.00元,22.263229,113.483482
747,19211882,济南市济南市历下区山大南路99-5号,济南市,济南市历下区山大南路99-5号,济南心艺,济南心艺医疗美容医院有限责任公司,8,6,2,6,143200.00元,36.67208,117.05011
748,19211883,深圳市深圳市南山区粤海街道科技园科技园文化广场三楼3A02,深圳市,深圳市南山区粤海街道科技园科技园文化广场三楼3A02,深圳芝华,深圳芝华医疗美容门诊部有限公司,20,7,13,7,111400.00元,22.540794,113.943115
749,19211884,深圳市深圳市南山区沙河街道白石洲未来时代办公综合楼201A-212、WB-01,深圳市,深圳市南山区沙河街道白石洲未来时代办公综合楼201A-212、WB-01,仁安雅,深圳仁安雅门诊部有限公司,59,30,29,30,403055.00元,22.532881,113.968384
750,19211885,东莞市东莞市东城街道东城路星河传说229号 星河传说CBD一区2号楼3楼,东莞市,东莞市东城街道东城路星河传说229号 星河传说CBD一区2号楼3楼,东莞宋亚,东莞市东城宋亚医疗美容诊所,1,0,1,0,0.00元,23.023529,113.787872
751,19211886,广州市广州市天河区天河北路390-392号首层自编,广州市,广州市天河区天河北路390-392号首层自编,广修肤堂,广州市天河区林和修肤堂美容院,3,0,3,0,0.00元,23.14134,113.33035
752,19211887,重庆重庆市江北区北城天街46号1幢40-1,重庆,重庆市江北区北城天街46号1幢40-1,厉恒整形,江北厉恒医疗美容诊所,36,18,18,18,221320.00元,29.57963,106.54359
753,19211888,金华市义乌市稠江街道义乌万达广场3幢142，143号,金华市,浙江省义乌市稠江街道义乌万达广场3幢142，143号,金连天美,义乌市连天美医疗美容门诊有限公司,33,22,11,22,289660.00元,29.27593,120.046738
754,19211889,常州市常州市武进区湖塘常武北路66号,常州市,常州市武进区湖塘常武北路66号,常施尔美,常州施尔美医疗美容医院有限公司,150,84,66,83,1291956.00元,31.73465,119.95781
755,19211890,常州市常州市新北区世贸商业广场9幢,常州市,常州市新北区世贸商业广场9幢,贝蒂珂,常州贝蒂珂医疗门诊部有限公司,1,0,1,0,0.00元,31.81193,120.003471
756,19211891,东莞市东莞市南城街道新城社区鸿福路200号海德广场2栋13层,东莞市,东莞市南城街道新城社区鸿福路200号海德广场2栋13层,瑞芙臣,东莞南城瑞芙臣医疗美容门诊部有限公司,304,185,119,182,3245832.00元,23.011431,113.758202
757,19211892,南京市南京市鼓楼区云南北路48号,南京市,南京市鼓楼区云南北路48号,南京美奥,南京美奥口腔门诊部有限公司,20,14,6,14,278345.00元,32.06742,118.78024
758,19211893,南京市南京市白下区户部街24号,南京市,白下区户部街24号,蕾特恩,南京市秦淮区蕾特恩美容院,18,9,9,9,64148.00元,32.03503,118.79158
759,19211894,杭州市杭州市滨江区通策广场2幢302室,杭州市,杭州市滨江区通策广场2幢302室,韩依秀,杭州乐秀医疗美容诊所（普通合伙）,2,1,1,1,45000.00元,30.18462,120.163177
760,19211895,中山市中山市东区起湾道盛景园10-13幢首层7卡商铺及二层5、6、7、8卡办公楼,中山市,中山市东区起湾道盛景园10-13幢首层7卡商铺及二层5、6、7、8卡办公楼,中山华美,中山华美医疗美容门诊部有限公司,82,50,32,47,857195.00元,22.514231,113.399986
761,19211898,长沙市长沙市开福区通泰街街道中山路589号开福万达广场c区3号写字楼1501号,长沙市,长沙市开福区通泰街街道中山路589号开福万达广场c区3号写字楼1501号,湘韩亮,长沙韩亮联美医疗美容有限公司,43,34,9,34,602580.00元,28.19878,112.97165
762,19211899,深圳市深圳市南山区粤海街道后海滨路与东滨路交汇处海王星辰大厦605单位,深圳市,深圳市南山区粤海街道后海滨路与东滨路交汇处海王星辰大厦605单位,聚美医疗,深圳聚美医疗美容门诊部有限公司,24,6,18,6,115880.00元,22.50508,113.93763
763,19211901,苏州市苏州市人民路3188号17幢商铺,苏州市,苏州市人民路3188号17幢商铺,蕾特恩祛,苏州蕾特恩生物科技有限公司,112,58,54,57,565462.00元,31.34099,120.61411
764,19211902,贵阳市贵州省贵阳市云岩区中山西路恒力大厦1层12号,贵阳市,贵州省贵阳市云岩区中山西路恒力大厦1层12号,贵蕾特恩,贵阳蕾特恩美容有限公司,377,275,102,271,2173557.00元,26.577129,106.709663
765,19211904,安庆市桐城市文昌街道鸿庆时代广场1号,安庆市,桐城市文昌街道鸿庆时代广场1号,桐城德尔,桐城市德尔美客金蒽医疗美容咨询有限公司,6,1,5,1,3800.00元,31.05084,116.949577
766,19211905,中山市中山市石岐区泰安路23号2层,中山市,中山市石岐区泰安路23号2层,粤德美馨,中山市德美馨美容医疗有限公司中山德美馨医疗美容门诊部,15,9,6,9,116200.00元,22.533421,113.385811
767,19211906,深圳市深圳市福田区红荔西路天健商务大厦02层S01-S03号房,深圳市,深圳,米兰柏羽,深圳米兰柏羽医疗美容门诊部有限公司,17,4,13,4,73121.00元,22.547001,114.047218
768,19211907,南京市南京市秦淮区建康路281号,南京市,南京市秦淮区建康路281号,肤康中医,南京市秦淮区肤康皮肤病中医门诊部,49,22,27,21,235800.00元,32.02386,118.79355
769,19211908,杭州市拱墅区文一路34号,杭州市,拱墅区文一路34号,苗方清颜,杭州市拱墅区苗邦美容店,44,28,16,28,394893.00元,30.28984,120.14676
770,19211910,宁波市浙江省宁波市鄞州区百丈东路57号,宁波市,浙江省宁波市鄞州区百丈东路57号,苗方清颜,宁波市鄞州新河苗一苗美容店,123,73,50,71,1035273.00元,29.86373,121.57072
771,19211911,杭州市浙江省杭州市拱墅区台州路2号运河上街商业中心417室,杭州市,6236681540003581357,杭蕾特恩,杭州蕾特恩美容有限公司拱墅分公司,2,0,2,0,0.00元,30.31945,120.14935
772,19211912,杭州市杭州市下城区建国北路360号,杭州市,杭州市下城区建国北路360号,杭蕾特恩,杭州蕾特恩美容有限公司,2,1,1,1,19700.00元,30.26687,120.1809
773,19211913,苏州市苏州市东吴北路219.223号101室无,苏州市,苏州市东吴北路219.223号101室,苏州肤康,苏州肤康皮肤病医院有限公司,271,220,51,219,2473371.00元,31.281875,120.625884
774,19211914,贵阳市贵州省贵阳市南明区花果园后街彭家湾花果园彭家湾棚户区改造项目B区第B北11号楼7层28号,贵阳市,贵州省贵阳市南明区花果园后街彭家湾花果园彭家湾棚户区改造项目B区第B北11号楼7层28号,gzjh,贵州京华医院有限公司,1,0,1,0,0.00元,26.56951,106.694778
775,19211915,绍兴市绍兴市越城区迪荡街道东池路122号江南世家2号楼301室,绍兴市,绍兴市越城区迪荡街道东池路122号江南世家2号楼301室,绍蕾特恩,绍兴市越城区东池路蕾特恩美容院,5,1,4,1,11480.00元,30.00453,120.59369
776,19211917,南京市福建路31号-1,南京市,福建路31号-1,南京新生,南京鼓楼新生门诊部,219,122,97,115,1605916.00元,32.08367,118.76424
777,19211918,上海上海市浦东新区北艾路1766号五楼,上海,上海市浦东新区北艾路1766号5楼,沪星氧,上海星氧医疗美容门诊部,340,216,124,207,5761080.00元,31.1795,121.52225
778,19211920,杭州市杭州市下城区朝晖路203号703室,杭州市,杭州市下城区朝晖路203号703室,杭蕾特恩,杭州蕾特恩美容有限公司下城分公司,7,6,1,6,48980.00元,30.27691,120.17012
779,19211922,杭州市浙江省杭州市江干区西子国际中心2号805室,杭州市,浙江省杭州市江干区西子国际中心2号805室,杭蕾特恩,杭州蕾特恩美容有限公司江干分公司,11,6,5,6,68080.00元,30.297091,120.217712
780,19211923,杭州市浙江省杭州市萧山区北干街道市心中路412号,杭州市,浙江省杭州市萧山区北干街道市心中路412号,杭蕾特恩,杭州萧山北干街道思研美容店,8,5,3,5,74400.00元,30.17474,120.26737
781,19211924,杭州市浙江省杭州市西湖区文二西路523号二层,杭州市,浙江省杭州市西湖区文二西路523号二层,杭蕾特恩,杭州市西湖区恩特蕾美容店,3,1,2,1,14198.00元,30.2812,120.09716
782,19211925,石家庄市河北省石家庄市长安区广安大街91号世纪方舟1-5层,石家庄市,河北省石家庄市长安区广安大街91号世纪方舟1-5层,美莱医疗,石家庄美莱医学美容医院有限公司,80,49,31,48,399376.00元,38.053287,114.523029
783,19211926,扬州市扬州市邗江区文汇西路213号1-6F南,扬州市,扬州市邗江区文汇西路213号1-6F南,扬美贝尔,扬州市美贝尔医疗美容有限公司邗江美贝尔医疗美容门诊部,20,4,16,4,46224.00元,32.37854,119.39591
784,19211927,扬州市瑞扬广场6-1号,扬州市,瑞扬广场6-1号,扬施尔美,扬州市邗江施尔美医疗美容医院有限公司,47,21,26,21,343710.00元,32.415951,119.388786
785,19211928,成都市成都市青羊区贝森路323号8栋1单元3层1号4层1号,成都市,成都市青羊区贝森路323号8栋1单元3层1号4层1号,成都普拉,成都普拉医疗管理有限公司,79,13,66,13,272800.00元,30.67059,103.99177
786,19211929,扬州市运河西路259号,扬州市,运河西路259号,扬艾菲斯,扬州广陵艾菲斯医疗美容门诊部,54,26,28,25,332060.00元,32.3885,119.45517
787,19211930,宁波市宁波市海曙区镇明街528号,宁波市,宁波市海曙区镇明街528号,海曙卡丽,宁波海曙卡丽医疗美容诊所有限公司,11,4,7,4,58800.00元,29.868219,121.55101
788,19211931,重庆重庆市渝中区长江支路25号附1号五层,重庆,重庆市渝中区长江支路25号附1号五层,红颜拜博,重庆红颜拜博医疗美容有限公司,27,17,10,16,175326.00元,29.54224,106.522423
789,19211933,深圳市深圳市罗湖区翠竹街道翠竹路翠都花园一层56号,深圳市,深圳市罗湖区翠竹街道翠竹路翠都花园一层56号,深圳颜美,深圳颜美医疗美容门诊部有限公司,22,9,13,9,144860.00元,22.55702,114.129677
790,19211934,深圳市深圳市南山区南山街道东滨路4269号中泰天成大楼2A、3A、4A,深圳市,深圳市南山区南山街道东滨路4269号中泰天成大楼2A、3A、4A,千羽医疗,深圳千羽医疗美容医院,45,11,34,11,213900.00元,22.50619,113.92157
791,19211935,"天津天津市河西区大沽南路501号增1号A,501号-205A",天津,天津市河西区大沽南路501号增1号A、501号-205A,津德尔,天津河西区德尔美客袖彦堂医疗美容门诊有限公司,2,1,1,1,28000.00元,39.10402,117.22396
792,19211936,舟山市普陀区东港街道宁兴街162号现代府邸3幢201-205室,舟山市,普陀区东港街道宁兴街162号现代府邸3幢201-205室,舟山妃斯,舟山市普陀区妃斯医疗美容门诊部,30,20,10,20,328000.00元,29.97647,122.32296
793,19211937,石家庄市河北省石家庄市长安区广安大街15号官鲤公寓3号商铺02,石家庄市,河北省石家庄市长安区广安大街15号官鲤公寓3号商铺02,苗医生,长安区苗邦美容院,1,1,0,1,5680.00元,38.04471,114.523373
794,19211938,上海上海,上海,上海市长宁区天山路960号一楼2室,苗医生,上海苗美美容有限公司,59,39,20,39,424539.00元,31.40527,121.48941
795,19211939,杭州市浙江省杭州市桐庐县县城云栖中路619号东方君兰中心1-01/1-02/3-01室,杭州市,浙江省杭州市桐庐县县城云栖中路619号东方君兰中心1-01/1-02/3-01室,桐庐韩加,桐庐韩加医疗美容门诊部有限公司,40,12,28,12,238781.00元,29.79018,119.70225
796,19211940,济南市山东省济南市槐荫区振兴花园1-4B,济南市,山东省济南市槐荫区振兴花园1-4B,济美尔雅,槐荫美尔雅整形美容诊所,1,1,0,1,19000.00元,36.648979,116.975929
797,19211941,宁波市浙江省宁波市高新区广贤路261号,宁波市,浙江省宁波市高新区广贤路261号,宁嘉莱美,宁波市嘉莱美医疗美容诊所有限公司,6,3,3,3,32000.00元,29.88693,121.62614
798,19211942,杭州市浙江省杭州市上城区海运国际大厦1号楼2601室,杭州市,浙江省杭州市上城区海运国际大厦1号楼2601室,杭州爱度,杭州爱度健康管理有限公司之江路医疗美容诊所,117,50,67,49,1261700.00元,30.214311,120.176117
799,19211944,重庆江北建新北路38号29-1,重庆,,伊雪整形,重庆伊雪美容服务有限公司伊雪时尚医疗美容门诊部,8,4,4,4,57300.00元,29.58351,106.52846
800,19211945,重庆重庆市南坪上海城3楼,重庆,重庆市南岸区南坪街道南坪西路38号第3层38号,成佳口腔,重庆成佳牙博士口腔医院,39,24,15,24,333336.00元,29.53027,106.560204
801,19211946,苏州市苏州市吴中区木渎镇金山路195号,苏州市,苏州市吴中区木渎镇金山路195号,周新国医,苏州周新国整形美容诊所有限公司,68,28,40,28,647200.00元,31.26953,120.51817
802,19211947,厦门市厦门市湖里区嘉禾路396号之26,厦门市,厦门市湖里区嘉禾路396号之26,厦痘博士,厦门市湖里区痘博士美容店,17,7,10,7,83100.00元,24.49783,118.12694
803,19211949,成都市成都市龙泉驿区龙泉街道欧鹏大道65号,成都市,成都市龙泉驿区龙泉街道欧鹏大道65号,cdlt,龙泉驿区龙泉街办蕾特恩美容院,204,129,75,129,908744.00元,30.55817,104.27007
804,19211950,湛江市湛江开发区海滨大道中路平乐下管区综合楼,湛江市,湛江开发区海滨大道中路平乐下管区综合楼,湛江东盟,湛江东盟整形美容医院有限责任公司,38,17,21,17,238488.00元,21.21978,110.419273
805,19211951,金华市浙江省金华市义乌市稠城街道通惠门六街13号,金华市,浙江省金华市义乌市稠城街道通惠门六街13号,洛纳丹蒂,义乌市洛纳丹蒂美容院,7,6,1,6,80256.00元,29.311359,120.075981
806,19211952,嘉兴市嘉兴市昌盛南路1216号、1246号,嘉兴市,嘉兴市昌盛南路1216号、1246号,嘉兴禾美,嘉兴市禾美医疗美容医院有限公司,61,26,35,26,311388.00元,30.74578,120.71636
807,19211953,台州市台州市路桥区路桥街道银座街651号,台州市,台州市路桥区路桥街道银座街651号,台州博仕,台州市路桥区博仕医疗美容门诊部,96,73,23,72,992280.00元,28.58306,121.37682
808,19211955,唐山市河北省唐山市路北区大里路44号,唐山市,河北省唐山市路北区大里路44号,唐美联臣,唐山苏亚美联臣医疗美容医院有限公司,44,24,20,23,428831.00元,39.630867,118.149993
809,19211956,厦门市厦门市湖里区兴山路234号07室,厦门市,厦门市湖里区兴山路234号07室,闽苗润生,厦门市湖里区苗润生美容店,34,26,8,26,376084.00元,24.50285,118.12818
810,19211957,厦门市厦门市思明区嘉禾路11号109单元,厦门市,厦门市思明区嘉禾路11号109单元,闽苗邦,厦门市思明区苗邦美容店,9,8,1,8,107990.00元,24.48054,118.12072
811,19211958,厦门市厦门市思明区厦禾路828号之110（2）单元,厦门市,厦门市思明区厦禾路828号之110（2）单元,闽苗医生,厦门市思明区苗医生美容店,14,8,6,8,97360.00元,24.46653,118.107
812,19211959,宁波市宁波市鄞州区泰安中路229号3楼,宁波市,宁波市鄞州区泰康中路229号3楼,宁波首美,宁波鄞州首美医疗美容诊所有限责任公司,147,92,55,91,2511100.00元,29.80303,121.54871
813,19211960,泉州市泉州市丰泽区宝洲路北侧后淮路口,泉州市,泉州市丰泽区宝洲路北侧后淮路口,丰泽欧菲,丰泽欧菲医疗美容门诊部,144,35,109,33,445946.00元,24.88228,118.601868
814,19211961,泉州市泉州市丰泽区祥远路云谷商贸综合楼1-4层,泉州市,泉州市丰泽区祥远路云谷商贸综合楼1-4层,泉州西华,泉州市丰泽区西华医疗美容门诊部,108,48,60,48,738428.00元,24.900221,118.613731
